{
"type": "FeatureCollection",
                                                                                
"features": [
{ "type": "Feature", "id": 0, "properties": { "districtna": "通州区", "districtco": 110112.000000, "latitude": 39.813862, "longitude": 116.551189, "name": "汽车充电站(科创东五街)", "address": "科创东五街1号", "picinfo": "http:\/\/store.is.autonavi.com\/showpic\/5dfad2da182aa20bc4fb59c0c3d965ce", "F8": null, "F9": null, "F10": null, "F11": null }, "geometry": { "type": "Point", "coordinates": [ 116.551189, 39.813862 ] } },
{ "type": "Feature", "id": 1, "properties": { "districtna": "丰台区", "districtco": 110106.000000, "latitude": 39.868962, "longitude": 116.440518, "name": "国家电网汽车充电站(芳城东里1街)", "address": "方庄路2号北京市路灯管理中心", "picinfo": null, "F8": null, "F9": null, "F10": null, "F11": null }, "geometry": { "type": "Point", "coordinates": [ 116.440518, 39.868962 ] } },
{ "type": "Feature", "id": 2, "properties": { "districtna": "海淀区", "districtco": 110108.000000, "latitude": 39.951046, "longitude": 116.344864, "name": "国家电网汽车充电站(芳华路)", "address": "西直门外上园村3号北京交通大学", "picinfo": null, "F8": null, "F9": null, "F10": null, "F11": null }, "geometry": { "type": "Point", "coordinates": [ 116.344864, 39.951046 ] } },
{ "type": "Feature", "id": 3, "properties": { "districtna": "海淀区", "districtco": 110108.000000, "latitude": 39.957609, "longitude": 116.266289, "name": "国家电网汽车充电站", "address": "四季青乡常润路15号", "picinfo": "http:\/\/store.is.autonavi.com\/showpic\/23cf3a8ca97dfdc30e28c7265603d1a1", "F8": null, "F9": null, "F10": null, "F11": null }, "geometry": { "type": "Point", "coordinates": [ 116.266289, 39.957609 ] } },
{ "type": "Feature", "id": 4, "properties": { "districtna": "西城区", "districtco": 110102.000000, "latitude": 39.883407, "longitude": 116.380435, "name": "国家电网汽车充电站(南横东街)", "address": "潘家胡同和南横东街的交叉口附近", "picinfo": "http:\/\/store.is.autonavi.com\/showpic\/b15ced27322ac8be72b52d0b5aacbbdf", "F8": null, "F9": null, "F10": null, "F11": null }, "geometry": { "type": "Point", "coordinates": [ 116.380435, 39.883407 ] } },
{ "type": "Feature", "id": 5, "properties": { "districtna": "朝阳区", "districtco": 110105.000000, "latitude": 39.948071, "longitude": 116.468755, "name": "国家电网汽车充电站(麦子店街)", "address": "麦子店街36号", "picinfo": "http:\/\/store.is.autonavi.com\/showpic\/af9dbeffe090c0a08a2e81bfde22710e", "F8": null, "F9": null, "F10": null, "F11": null }, "geometry": { "type": "Point", "coordinates": [ 116.468755, 39.948071 ] } },
{ "type": "Feature", "id": 6, "properties": { "districtna": "海淀区", "districtco": 110108.000000, "latitude": 39.993576, "longitude": 116.329440, "name": "清华科技园充电站", "address": "中关村东路1号院科建大厦(南门)附近", "picinfo": "http:\/\/store.is.autonavi.com\/showpic\/6aa653eadf3af1745d8767bd5829053f", "F8": null, "F9": null, "F10": null, "F11": null }, "geometry": { "type": "Point", "coordinates": [ 116.32944, 39.993576 ] } },
{ "type": "Feature", "id": 7, "properties": { "districtna": "西城区", "districtco": 110102.000000, "latitude": 39.903589, "longitude": 116.358881, "name": "国家电网汽车充电站(醇亲王府路)", "address": "醇亲王府路", "picinfo": "http:\/\/store.is.autonavi.com\/showpic\/4978f513b822c130d9cc2815857a9f24", "F8": null, "F9": null, "F10": null, "F11": null }, "geometry": { "type": "Point", "coordinates": [ 116.358881, 39.903589 ] } },
{ "type": "Feature", "id": 8, "properties": { "districtna": "海淀区", "districtco": 110108.000000, "latitude": 39.956270, "longitude": 116.258658, "name": "汽车充电站(燕桥金路)", "address": "燕桥金路北100米", "picinfo": null, "F8": null, "F9": null, "F10": null, "F11": null }, "geometry": { "type": "Point", "coordinates": [ 116.258658, 39.95627 ] } },
{ "type": "Feature", "id": 9, "properties": { "districtna": "海淀区", "districtco": 110108.000000, "latitude": 39.912166, "longitude": 116.276019, "name": "特斯拉汽车超级充电站", "address": "复兴路69号卓展购物中心西1门", "picinfo": "http:\/\/store.is.autonavi.com\/showpic\/8a75a2ddbecc6aa7e4629bd70e459e07", "F8": null, "F9": null, "F10": null, "F11": null }, "geometry": { "type": "Point", "coordinates": [ 116.276019, 39.912166 ] } },
{ "type": "Feature", "id": 10, "properties": { "districtna": "海淀区", "districtco": 110108.000000, "latitude": 39.972878, "longitude": 116.294828, "name": "特斯拉汽车充电站(华联万柳购物中心)", "address": "巴沟路2号北京华联万柳购物中心地下停车场B2层", "picinfo": null, "F8": null, "F9": null, "F10": null, "F11": null }, "geometry": { "type": "Point", "coordinates": [ 116.294828, 39.972878 ] } },
{ "type": "Feature", "id": 11, "properties": { "districtna": "海淀区", "districtco": 110108.000000, "latitude": 40.049052, "longitude": 116.331622, "name": "比亚迪充电站(鑫敏恒瑞鑫4S店)", "address": "八达岭高速西三旗桥南500米路西", "picinfo": "http:\/\/store.is.autonavi.com\/showpic\/d7be3777fc2a528594e4110f787f39d7", "F8": null, "F9": null, "F10": null, "F11": null }, "geometry": { "type": "Point", "coordinates": [ 116.331622, 40.049052 ] } },
{ "type": "Feature", "id": 12, "properties": { "districtna": "海淀区", "districtco": 110108.000000, "latitude": 39.932780, "longitude": 116.215541, "name": "比亚迪汽车充电站(鹏天奥4S店)", "address": "廖公庄村国金院东侧平房", "picinfo": null, "F8": null, "F9": null, "F10": null, "F11": null }, "geometry": { "type": "Point", "coordinates": [ 116.215541, 39.93278 ] } },
{ "type": "Feature", "id": 13, "properties": { "districtna": "海淀区", "districtco": 110108.000000, "latitude": 39.957680, "longitude": 116.319767, "name": "国家电网汽车汽车充电站(魏公村路)", "address": "中关村南大街5号北京理工大学", "picinfo": "http:\/\/store.is.autonavi.com\/showpic\/dba5d56ab2effde472b24b25bb12630e", "F8": null, "F9": null, "F10": null, "F11": null }, "geometry": { "type": "Point", "coordinates": [ 116.319767, 39.95768 ] } },
{ "type": "Feature", "id": 14, "properties": { "districtna": "海淀区", "districtco": 110108.000000, "latitude": 39.925973, "longitude": 116.324556, "name": "师范大学东区电动汽车充电站", "address": "阜成路143号附近", "picinfo": "http:\/\/store.is.autonavi.com\/showpic\/d403c21615da00ad13c7f2ea3237ce2c", "F8": null, "F9": null, "F10": null, "F11": null }, "geometry": { "type": "Point", "coordinates": [ 116.324556, 39.925973 ] } },
{ "type": "Feature", "id": 15, "properties": { "districtna": "海淀区", "districtco": 110108.000000, "latitude": 39.982162, "longitude": 116.338607, "name": "优易达汽车充电站", "address": "大运村西路西200米", "picinfo": null, "F8": null, "F9": null, "F10": null, "F11": null }, "geometry": { "type": "Point", "coordinates": [ 116.338607, 39.982162 ] } },
{ "type": "Feature", "id": 16, "properties": { "districtna": "海淀区", "districtco": 110108.000000, "latitude": 39.950113, "longitude": 116.339412, "name": "国家电网汽车充电站(积秀路)", "address": "西直门外上园村3号北京交通大学", "picinfo": "http:\/\/store.is.autonavi.com\/showpic\/1b1c74ece0a1f5227f445266dc4c7bb2", "F8": null, "F9": null, "F10": null, "F11": null }, "geometry": { "type": "Point", "coordinates": [ 116.339412, 39.950113 ] } },
{ "type": "Feature", "id": 17, "properties": { "districtna": "海淀区", "districtco": 110108.000000, "latitude": 39.974609, "longitude": 116.303220, "name": "橙橙科技汽车充电站", "address": "海淀南路36号", "picinfo": null, "F8": null, "F9": null, "F10": null, "F11": null }, "geometry": { "type": "Point", "coordinates": [ 116.30322, 39.974609 ] } },
{ "type": "Feature", "id": 18, "properties": { "districtna": "海淀区", "districtco": 110108.000000, "latitude": 39.991439, "longitude": 116.326598, "name": "优科科技充电站", "address": "中关村北二街与成府路交叉口西南150米", "picinfo": "http:\/\/store.is.autonavi.com\/showpic\/28b944ebd180bb9ece9c3296457e40b1", "F8": null, "F9": null, "F10": null, "F11": null }, "geometry": { "type": "Point", "coordinates": [ 116.326598, 39.991439 ] } },
{ "type": "Feature", "id": 19, "properties": { "districtna": "海淀区", "districtco": 110108.000000, "latitude": 40.018856, "longitude": 116.266762, "name": "国家电网汽车充电站(红山路)", "address": "红山口甲三号国防大学东门附近", "picinfo": "http:\/\/store.is.autonavi.com\/showpic\/97c9d52dca07e6aebca81275acbeed09", "F8": null, "F9": null, "F10": null, "F11": null }, "geometry": { "type": "Point", "coordinates": [ 116.266762, 40.018856 ] } },
{ "type": "Feature", "id": 20, "properties": { "districtna": "海淀区", "districtco": 110108.000000, "latitude": 39.953838, "longitude": 116.336614, "name": "嘉苑饭店充电站", "address": "大慧寺路与高梁桥斜街交叉口东北200米", "picinfo": null, "F8": null, "F9": null, "F10": null, "F11": null }, "geometry": { "type": "Point", "coordinates": [ 116.336614, 39.953838 ] } },
{ "type": "Feature", "id": 21, "properties": { "districtna": "海淀区", "districtco": 110108.000000, "latitude": 39.952340, "longitude": 116.218368, "name": "汽车充电站", "address": "杏石口路98号", "picinfo": "北京邮政学校足球场北侧", "F8": "http:\/\/store.is.autonavi.com\/showpic\/f670970842985d8057c608c8a118a9d8", "F9": null, "F10": null, "F11": null }, "geometry": { "type": "Point", "coordinates": [ 116.218368, 39.95234 ] } },
{ "type": "Feature", "id": 22, "properties": { "districtna": "海淀区", "districtco": 110108.000000, "latitude": 40.041760, "longitude": 116.316040, "name": "汽车充电站(IMOMA)", "address": "上地安宁庄路IMOMA地下停车场3层", "picinfo": null, "F8": null, "F9": null, "F10": null, "F11": null }, "geometry": { "type": "Point", "coordinates": [ 116.31604, 40.04176 ] } },
{ "type": "Feature", "id": 23, "properties": { "districtna": "海淀区", "districtco": 110108.000000, "latitude": 40.020059, "longitude": 116.351434, "name": "普天新能源汽车充电站", "address": "学清路9号汇智大厦地上停车场", "picinfo": "http:\/\/store.is.autonavi.com\/showpic\/0da8c8265990f1af7c14d723be17493a", "F8": null, "F9": null, "F10": null, "F11": null }, "geometry": { "type": "Point", "coordinates": [ 116.351434, 40.020059 ] } },
{ "type": "Feature", "id": 24, "properties": { "districtna": "海淀区", "districtco": 110108.000000, "latitude": 39.957320, "longitude": 116.321521, "name": "汽车充电站(魏公村路)", "address": "学院南路与魏公村路交叉口西150米", "picinfo": null, "F8": null, "F9": null, "F10": null, "F11": null }, "geometry": { "type": "Point", "coordinates": [ 116.321521, 39.95732 ] } },
{ "type": "Feature", "id": 25, "properties": { "districtna": "海淀区", "districtco": 110108.000000, "latitude": 39.984750, "longitude": 116.262742, "name": "国家电网汽车充电站", "address": "颐和园西门路东200米", "picinfo": null, "F8": null, "F9": null, "F10": null, "F11": null }, "geometry": { "type": "Point", "coordinates": [ 116.262742, 39.98475 ] } },
{ "type": "Feature", "id": 26, "properties": { "districtna": "海淀区", "districtco": 110108.000000, "latitude": 39.973218, "longitude": 116.334359, "name": "新能源车辆充电站", "address": "中关村东路108号", "picinfo": null, "F8": null, "F9": null, "F10": null, "F11": null }, "geometry": { "type": "Point", "coordinates": [ 116.334359, 39.973218 ] } },
{ "type": "Feature", "id": 27, "properties": { "districtna": "海淀区", "districtco": 110108.000000, "latitude": 39.946652, "longitude": 116.341727, "name": "东升电焊机厂充电站", "address": "高梁桥斜街19号附近", "picinfo": null, "F8": null, "F9": null, "F10": null, "F11": null }, "geometry": { "type": "Point", "coordinates": [ 116.341727, 39.946652 ] } },
{ "type": "Feature", "id": 28, "properties": { "districtna": "海淀区", "districtco": 110108.000000, "latitude": 39.897430, "longitude": 116.312260, "name": "京都信苑充电站", "address": "什坊院6号", "picinfo": null, "F8": null, "F9": null, "F10": null, "F11": null }, "geometry": { "type": "Point", "coordinates": [ 116.31226, 39.89743 ] } },
{ "type": "Feature", "id": 29, "properties": { "districtna": "海淀区", "districtco": 110108.000000, "latitude": 39.961613, "longitude": 116.297895, "name": "小易充电交流充电站", "address": "万柳中路29-2号附近", "picinfo": null, "F8": null, "F9": null, "F10": null, "F11": null }, "geometry": { "type": "Point", "coordinates": [ 116.297895, 39.961613 ] } },
{ "type": "Feature", "id": 30, "properties": { "districtna": "海淀区", "districtco": 110108.000000, "latitude": 39.944796, "longitude": 116.300484, "name": "普天新能源充电桩", "address": "紫竹院路南100米", "picinfo": null, "F8": null, "F9": null, "F10": null, "F11": null }, "geometry": { "type": "Point", "coordinates": [ 116.300484, 39.944796 ] } },
{ "type": "Feature", "id": 31, "properties": { "districtna": "海淀区", "districtco": 110108.000000, "latitude": 39.944796, "longitude": 116.300484, "name": "优易充充电桩", "address": "紫竹院路南100米", "picinfo": null, "F8": null, "F9": null, "F10": null, "F11": null }, "geometry": { "type": "Point", "coordinates": [ 116.300484, 39.944796 ] } },
{ "type": "Feature", "id": 32, "properties": { "districtna": "海淀区", "districtco": 110108.000000, "latitude": 39.994502, "longitude": 116.356674, "name": "国家电网汽车充电站", "address": "图书馆北路与志新路交叉口西北150米", "picinfo": null, "F8": null, "F9": null, "F10": null, "F11": null }, "geometry": { "type": "Point", "coordinates": [ 116.356674, 39.994502 ] } },
{ "type": "Feature", "id": 33, "properties": { "districtna": "海淀区", "districtco": 110108.000000, "latitude": 39.905554, "longitude": 116.329991, "name": "富电科技充电站", "address": "会城门路与北蜂窝路交叉口东北150米", "picinfo": null, "F8": null, "F9": null, "F10": null, "F11": null }, "geometry": { "type": "Point", "coordinates": [ 116.329991, 39.905554 ] } },
{ "type": "Feature", "id": 34, "properties": { "districtna": "海淀区", "districtco": 110108.000000, "latitude": 40.043132, "longitude": 116.337132, "name": "北京万通恒泰汽车销售有限公司充电站", "address": "京藏高速", "picinfo": "http:\/\/store.is.autonavi.com\/showpic\/b85ad316c8420ffa35bc33eb3260c098", "F8": null, "F9": null, "F10": null, "F11": null }, "geometry": { "type": "Point", "coordinates": [ 116.337132, 40.043132 ] } },
{ "type": "Feature", "id": 35, "properties": { "districtna": "海淀区", "districtco": 110108.000000, "latitude": 39.982603, "longitude": 116.306512, "name": "嘀嘀充电汽车充电站", "address": "海淀街道海淀大街38号中关村创业大街", "picinfo": null, "F8": null, "F9": null, "F10": null, "F11": null }, "geometry": { "type": "Point", "coordinates": [ 116.306512, 39.982603 ] } },
{ "type": "Feature", "id": 36, "properties": { "districtna": "海淀区", "districtco": 110108.000000, "latitude": 39.958213, "longitude": 116.360457, "name": "汽车充电站(学院南路)", "address": "北太平庄街道北京中仁中医医院北京邮电大学", "picinfo": null, "F8": null, "F9": null, "F10": null, "F11": null }, "geometry": { "type": "Point", "coordinates": [ 116.360457, 39.958213 ] } },
{ "type": "Feature", "id": 37, "properties": { "districtna": "海淀区", "districtco": 110108.000000, "latitude": 39.992516, "longitude": 116.219653, "name": "国家电网汽车充电站", "address": "香泉环岛西南角", "picinfo": null, "F8": null, "F9": null, "F10": null, "F11": null }, "geometry": { "type": "Point", "coordinates": [ 116.219653, 39.992516 ] } },
{ "type": "Feature", "id": 38, "properties": { "districtna": "海淀区", "districtco": 110108.000000, "latitude": 39.948195, "longitude": 116.286700, "name": "循道新能源汽车充电站", "address": "板井路与正福寺路交叉口西南150米", "picinfo": null, "F8": null, "F9": null, "F10": null, "F11": null }, "geometry": { "type": "Point", "coordinates": [ 116.2867, 39.948195 ] } },
{ "type": "Feature", "id": 39, "properties": { "districtna": "海淀区", "districtco": 110108.000000, "latitude": 39.936574, "longitude": 116.329967, "name": "国家电网汽车充电站(新苑街)", "address": "三里河路1号西苑饭店", "picinfo": null, "F8": null, "F9": null, "F10": null, "F11": null }, "geometry": { "type": "Point", "coordinates": [ 116.329967, 39.936574 ] } },
{ "type": "Feature", "id": 40, "properties": { "districtna": "海淀区", "districtco": 110108.000000, "latitude": 39.979671, "longitude": 116.311164, "name": "充电侠汽车充电站", "address": "善缘街与海淀中街交叉口南100米", "picinfo": null, "F8": null, "F9": null, "F10": null, "F11": null }, "geometry": { "type": "Point", "coordinates": [ 116.311164, 39.979671 ] } },
{ "type": "Feature", "id": 41, "properties": { "districtna": "海淀区", "districtco": 110108.000000, "latitude": 40.066184, "longitude": 116.253115, "name": "海淀六里屯三区充电站", "address": "六里屯回迁安置房小区三区(五号楼北侧", "picinfo": "二号楼南侧四车位)", "F8": null, "F9": null, "F10": null, "F11": null }, "geometry": { "type": "Point", "coordinates": [ 116.253115, 40.066184 ] } },
{ "type": "Feature", "id": 42, "properties": { "districtna": "海淀区", "districtco": 110108.000000, "latitude": 39.972900, "longitude": 116.335253, "name": "循道新能源汽车充电站", "address": "中关村东路与双榆树北路交叉口东150米", "picinfo": "http:\/\/store.is.autonavi.com\/showpic\/1f3c4eb90dc059ac9154adb2bc3a3c45", "F8": null, "F9": null, "F10": null, "F11": null }, "geometry": { "type": "Point", "coordinates": [ 116.335253, 39.9729 ] } },
{ "type": "Feature", "id": 43, "properties": { "districtna": "海淀区", "districtco": 110108.000000, "latitude": 40.006572, "longitude": 116.356484, "name": "庞大集团汽车充电站", "address": "学院路街道中国农业大学信息与电气工程学院中国农业大学东校区", "picinfo": null, "F8": null, "F9": null, "F10": null, "F11": null }, "geometry": { "type": "Point", "coordinates": [ 116.356484, 40.006572 ] } },
{ "type": "Feature", "id": 44, "properties": { "districtna": "海淀区", "districtco": 110108.000000, "latitude": 39.985856, "longitude": 116.300151, "name": "国家电网汽车充电站(万泉河路)", "address": "万泉河桥下", "picinfo": "http:\/\/store.is.autonavi.com\/showpic\/19e3ea6155c9ebc5fee49b3ec1ea1154", "F8": null, "F9": null, "F10": null, "F11": null }, "geometry": { "type": "Point", "coordinates": [ 116.300151, 39.985856 ] } },
{ "type": "Feature", "id": 45, "properties": { "districtna": "海淀区", "districtco": 110108.000000, "latitude": 40.043241, "longitude": 116.330717, "name": "腾势电动车充电站", "address": "安宁庄东路13号附近", "picinfo": null, "F8": null, "F9": null, "F10": null, "F11": null }, "geometry": { "type": "Point", "coordinates": [ 116.330717, 40.043241 ] } },
{ "type": "Feature", "id": 46, "properties": { "districtna": "海淀区", "districtco": 110108.000000, "latitude": 39.951093, "longitude": 116.281822, "name": "特斯拉汽车充电站(北京黑白格)", "address": "板井路69-1黑白格洗车店停车场", "picinfo": null, "F8": null, "F9": null, "F10": null, "F11": null }, "geometry": { "type": "Point", "coordinates": [ 116.281822, 39.951093 ] } },
{ "type": "Feature", "id": 47, "properties": { "districtna": "海淀区", "districtco": 110108.000000, "latitude": 39.926232, "longitude": 116.240444, "name": "ChargeDO汽车充电站", "address": "田村山南路247号附近", "picinfo": null, "F8": null, "F9": null, "F10": null, "F11": null }, "geometry": { "type": "Point", "coordinates": [ 116.240444, 39.926232 ] } },
{ "type": "Feature", "id": 48, "properties": { "districtna": "海淀区", "districtco": 110108.000000, "latitude": 40.046797, "longitude": 116.304207, "name": "汽车充电站(信息路)", "address": "上地信息路2号国际创业园2号楼", "picinfo": null, "F8": null, "F9": null, "F10": null, "F11": null }, "geometry": { "type": "Point", "coordinates": [ 116.304207, 40.046797 ] } },
{ "type": "Feature", "id": 49, "properties": { "districtna": "海淀区", "districtco": 110108.000000, "latitude": 39.935924, "longitude": 116.309275, "name": "温莎KTV花园店充电站", "address": "西三环北路87国际财经中心B2地下停车场", "picinfo": null, "F8": null, "F9": null, "F10": null, "F11": null }, "geometry": { "type": "Point", "coordinates": [ 116.309275, 39.935924 ] } },
{ "type": "Feature", "id": 50, "properties": { "districtna": "海淀区", "districtco": 110108.000000, "latitude": 40.078626, "longitude": 116.234279, "name": "汽车充电站(丰德中路)", "address": "丰德中路与永翔北路交叉口东150米", "picinfo": null, "F8": null, "F9": null, "F10": null, "F11": null }, "geometry": { "type": "Point", "coordinates": [ 116.234279, 40.078626 ] } },
{ "type": "Feature", "id": 51, "properties": { "districtna": "海淀区", "districtco": 110108.000000, "latitude": 39.908992, "longitude": 116.333406, "name": "特斯拉汽车充电站(茂林居东路)", "address": "复兴路甲3号民生银行停车位2021", "picinfo": null, "F8": null, "F9": null, "F10": null, "F11": null }, "geometry": { "type": "Point", "coordinates": [ 116.333406, 39.908992 ] } },
{ "type": "Feature", "id": 52, "properties": { "districtna": "海淀区", "districtco": 110108.000000, "latitude": 40.043539, "longitude": 116.336669, "name": "联桩汽车充电站", "address": "G6京藏高速与G6京藏高速出口交叉口西南150米", "picinfo": null, "F8": null, "F9": null, "F10": null, "F11": null }, "geometry": { "type": "Point", "coordinates": [ 116.336669, 40.043539 ] } },
{ "type": "Feature", "id": 53, "properties": { "districtna": "海淀区", "districtco": 110108.000000, "latitude": 40.048182, "longitude": 116.332619, "name": "星星充电汽车充电站", "address": "服务区与G6京藏高速交叉口西150米", "picinfo": null, "F8": null, "F9": null, "F10": null, "F11": null }, "geometry": { "type": "Point", "coordinates": [ 116.332619, 40.048182 ] } },
{ "type": "Feature", "id": 54, "properties": { "districtna": "海淀区", "districtco": 110108.000000, "latitude": 40.049982, "longitude": 116.328418, "name": "普天新能源汽车充电站", "address": "安宁佳园东路与安宁庄后街交叉口西南100米", "picinfo": null, "F8": null, "F9": null, "F10": null, "F11": null }, "geometry": { "type": "Point", "coordinates": [ 116.328418, 40.049982 ] } },
{ "type": "Feature", "id": 55, "properties": { "districtna": "海淀区", "districtco": 110108.000000, "latitude": 40.082949, "longitude": 116.235598, "name": "特来电汽车充电站", "address": "大牛坊回迁安置房小区一区(12号楼7单元西侧四车位)", "picinfo": null, "F8": null, "F9": null, "F10": null, "F11": null }, "geometry": { "type": "Point", "coordinates": [ 116.235598, 40.082949 ] } },
{ "type": "Feature", "id": 56, "properties": { "districtna": "海淀区", "districtco": 110108.000000, "latitude": 40.109997, "longitude": 116.214319, "name": "汽车充电站(上庄中路)", "address": "上庄中路与南玉河路交叉口东北150米", "picinfo": null, "F8": null, "F9": null, "F10": null, "F11": null }, "geometry": { "type": "Point", "coordinates": [ 116.214319, 40.109997 ] } },
{ "type": "Feature", "id": 57, "properties": { "districtna": "海淀区", "districtco": 110108.000000, "latitude": 39.943963, "longitude": 116.328940, "name": "北京西郊动物医院充电站", "address": "五塔寺路北100米", "picinfo": null, "F8": null, "F9": null, "F10": null, "F11": null }, "geometry": { "type": "Point", "coordinates": [ 116.32894, 39.943963 ] } },
{ "type": "Feature", "id": 58, "properties": { "districtna": "海淀区", "districtco": 110108.000000, "latitude": 40.063724, "longitude": 116.251743, "name": "国家电网汽车充电站", "address": "永丰路附近", "picinfo": null, "F8": null, "F9": null, "F10": null, "F11": null }, "geometry": { "type": "Point", "coordinates": [ 116.251743, 40.063724 ] } },
{ "type": "Feature", "id": 59, "properties": { "districtna": "海淀区", "districtco": 110108.000000, "latitude": 40.045405, "longitude": 116.354519, "name": "基业达电气公司充电站", "address": "清河小营后屯路", "picinfo": "基业达电气", "F8": null, "F9": null, "F10": null, "F11": null }, "geometry": { "type": "Point", "coordinates": [ 116.354519, 40.045405 ] } },
{ "type": "Feature", "id": 60, "properties": { "districtna": "东城区", "districtco": 110101.000000, "latitude": 39.928234, "longitude": 116.408778, "name": "北京内蒙古宾馆充电站", "address": "美术馆后街71号(近中国美术馆)", "picinfo": null, "F8": null, "F9": null, "F10": null, "F11": null }, "geometry": { "type": "Point", "coordinates": [ 116.408778, 39.928234 ] } },
{ "type": "Feature", "id": 61, "properties": { "districtna": "海淀区", "districtco": 110108.000000, "latitude": 40.027329, "longitude": 116.335160, "name": "国家电网汽车充电站", "address": "毛纺路11-1号楼附近", "picinfo": null, "F8": null, "F9": null, "F10": null, "F11": null }, "geometry": { "type": "Point", "coordinates": [ 116.33516, 40.027329 ] } },
{ "type": "Feature", "id": 62, "properties": { "districtna": "海淀区", "districtco": 110108.000000, "latitude": 39.927054, "longitude": 116.301600, "name": "八里庄街道办事处充电站", "address": "北洼路与恩济街交叉口东北50米", "picinfo": null, "F8": null, "F9": null, "F10": null, "F11": null }, "geometry": { "type": "Point", "coordinates": [ 116.3016, 39.927054 ] } },
{ "type": "Feature", "id": 63, "properties": { "districtna": "海淀区", "districtco": 110108.000000, "latitude": 39.980176, "longitude": 116.348442, "name": "特斯拉充电站(北京航空航天大学天行网球馆)", "address": "学院路37号北京航空航天大学天行网球馆", "picinfo": null, "F8": null, "F9": null, "F10": null, "F11": null }, "geometry": { "type": "Point", "coordinates": [ 116.348442, 39.980176 ] } },
{ "type": "Feature", "id": 64, "properties": { "districtna": "海淀区", "districtco": 110108.000000, "latitude": 40.089338, "longitude": 116.182056, "name": "汽车充电站(稻香湖路)", "address": "稻香湖路", "picinfo": null, "F8": null, "F9": null, "F10": null, "F11": null }, "geometry": { "type": "Point", "coordinates": [ 116.182056, 40.089338 ] } },
{ "type": "Feature", "id": 65, "properties": { "districtna": "海淀区", "districtco": 110108.000000, "latitude": 39.976943, "longitude": 116.371781, "name": "汽车充电站(北土城西路)", "address": "花园东路30号(10号线牡丹园地铁站旁)", "picinfo": null, "F8": null, "F9": null, "F10": null, "F11": null }, "geometry": { "type": "Point", "coordinates": [ 116.371781, 39.976943 ] } },
{ "type": "Feature", "id": 66, "properties": { "districtna": "海淀区", "districtco": 110108.000000, "latitude": 39.956558, "longitude": 116.363604, "name": "汽车充电站(红联东村路)", "address": "学院路街道学院南路12号北师大国家大学科技园附近", "picinfo": null, "F8": null, "F9": null, "F10": null, "F11": null }, "geometry": { "type": "Point", "coordinates": [ 116.363604, 39.956558 ] } },
{ "type": "Feature", "id": 67, "properties": { "districtna": "海淀区", "districtco": 110108.000000, "latitude": 39.945260, "longitude": 116.350081, "name": "星星充电汽车汽车充电站", "address": "交大东路66号院地面及地下车库", "picinfo": null, "F8": null, "F9": null, "F10": null, "F11": null }, "geometry": { "type": "Point", "coordinates": [ 116.350081, 39.94526 ] } },
{ "type": "Feature", "id": 68, "properties": { "districtna": "海淀区", "districtco": 110108.000000, "latitude": 39.930662, "longitude": 116.260526, "name": "汽车充电站(半壁店二街)", "address": "西郊半壁店59号凯宾科技大厦附近", "picinfo": null, "F8": null, "F9": null, "F10": null, "F11": null }, "geometry": { "type": "Point", "coordinates": [ 116.260526, 39.930662 ] } },
{ "type": "Feature", "id": 69, "properties": { "districtna": "海淀区", "districtco": 110108.000000, "latitude": 39.964568, "longitude": 116.365571, "name": "国家电网充电站(励耘路)", "address": "京师路与励耘路交叉口西南100米", "picinfo": null, "F8": null, "F9": null, "F10": null, "F11": null }, "geometry": { "type": "Point", "coordinates": [ 116.365571, 39.964568 ] } },
{ "type": "Feature", "id": 70, "properties": { "districtna": "海淀区", "districtco": 110108.000000, "latitude": 39.999093, "longitude": 116.317678, "name": "挚达汽车充电站(清华路)", "address": "清华路与近春路交叉口西南150米", "picinfo": null, "F8": null, "F9": null, "F10": null, "F11": null }, "geometry": { "type": "Point", "coordinates": [ 116.317678, 39.999093 ] } },
{ "type": "Feature", "id": 71, "properties": { "districtna": "海淀区", "districtco": 110108.000000, "latitude": 39.983782, "longitude": 116.313832, "name": "腾势汽车充电站(善缘街)", "address": "中关村西区10号地鼎好电子商城路西", "picinfo": null, "F8": null, "F9": null, "F10": null, "F11": null }, "geometry": { "type": "Point", "coordinates": [ 116.313832, 39.983782 ] } },
{ "type": "Feature", "id": 72, "properties": { "districtna": "海淀区", "districtco": 110108.000000, "latitude": 40.025943, "longitude": 116.282721, "name": "汽车充电站(农科社区北)", "address": "圆明园西路2号中国农业大学中法牛肉基地(直接)充电点", "picinfo": "http:\/\/store.is.autonavi.com\/showpic\/e4b0975820ca93fa7fdf3a53b100b05f", "F8": null, "F9": null, "F10": null, "F11": null }, "geometry": { "type": "Point", "coordinates": [ 116.282721, 40.025943 ] } },
{ "type": "Feature", "id": 73, "properties": { "districtna": "海淀区", "districtco": 110108.000000, "latitude": 39.962758, "longitude": 116.273642, "name": "特来电汽车充电站(昆明湖南路)", "address": "昆明湖南路9号权金城休闲假日酒店停车场", "picinfo": "http:\/\/store.is.autonavi.com\/showpic\/5d630fd711eb8eddc1d60bd86b0ab1cf", "F8": null, "F9": null, "F10": null, "F11": null }, "geometry": { "type": "Point", "coordinates": [ 116.273642, 39.962758 ] } },
{ "type": "Feature", "id": 74, "properties": { "districtna": "海淀区", "districtco": 110108.000000, "latitude": 39.959201, "longitude": 116.276958, "name": "国家电网汽车充电站(北京大诚中医针灸医院北)", "address": "西四环北路38号", "picinfo": "http:\/\/store.is.autonavi.com\/showpic\/53bb4ce9a310502a4d103327", "F8": null, "F9": null, "F10": null, "F11": null }, "geometry": { "type": "Point", "coordinates": [ 116.276958, 39.959201 ] } },
{ "type": "Feature", "id": 75, "properties": { "districtna": "海淀区", "districtco": 110108.000000, "latitude": 39.941667, "longitude": 116.294293, "name": "挚达汽车充电站(彰化路)", "address": "彰化路与蓝靛厂南路交叉口西南150米", "picinfo": null, "F8": null, "F9": null, "F10": null, "F11": null }, "geometry": { "type": "Point", "coordinates": [ 116.294293, 39.941667 ] } },
{ "type": "Feature", "id": 76, "properties": { "districtna": "海淀区", "districtco": 110108.000000, "latitude": 39.973029, "longitude": 116.259503, "name": "国家电网汽车充电站(华盛昌辰和东风日产4S店)", "address": "闵庄路2号华盛昌辰和东风日产4S店西厅", "picinfo": "http:\/\/store.is.autonavi.com\/showpic\/5b6be6c499811997c6f4aefffa428646", "F8": null, "F9": null, "F10": null, "F11": null }, "geometry": { "type": "Point", "coordinates": [ 116.259503, 39.973029 ] } },
{ "type": "Feature", "id": 77, "properties": { "districtna": "海淀区", "districtco": 110108.000000, "latitude": 39.928757, "longitude": 116.253705, "name": "依威能源充电站(玉泉路)", "address": "玉泉路与田村路交叉口东南100米", "picinfo": null, "F8": null, "F9": null, "F10": null, "F11": null }, "geometry": { "type": "Point", "coordinates": [ 116.253705, 39.928757 ] } },
{ "type": "Feature", "id": 78, "properties": { "districtna": "海淀区", "districtco": 110108.000000, "latitude": 40.082448, "longitude": 116.243281, "name": "永丰科技企业加速器一区充电桩", "address": "永捷北路永丰产业基地", "picinfo": null, "F8": null, "F9": null, "F10": null, "F11": null }, "geometry": { "type": "Point", "coordinates": [ 116.243281, 40.082448 ] } },
{ "type": "Feature", "id": 79, "properties": { "districtna": "海淀区", "districtco": 110108.000000, "latitude": 39.946542, "longitude": 116.341595, "name": "普天新能源汽车充电站(无名居站)", "address": "高梁桥斜街19号2号附近", "picinfo": "http:\/\/store.is.autonavi.com\/showpic\/8dc3fd28576399b1ea91466797926671", "F8": null, "F9": null, "F10": null, "F11": null }, "geometry": { "type": "Point", "coordinates": [ 116.341595, 39.946542 ] } },
{ "type": "Feature", "id": 80, "properties": { "districtna": "海淀区", "districtco": 110108.000000, "latitude": 40.001000, "longitude": 116.315833, "name": "汽车充电站(中关村北大街)", "address": "清华西路与清华路交叉口北150米", "picinfo": null, "F8": null, "F9": null, "F10": null, "F11": null }, "geometry": { "type": "Point", "coordinates": [ 116.315833, 40.001 ] } },
{ "type": "Feature", "id": 81, "properties": { "districtna": "海淀区", "districtco": 110108.000000, "latitude": 39.953236, "longitude": 116.236259, "name": "汽车充电站(益园文创基地)", "address": "杏石口路65号益园餐厅后侧(益园文创基地A区北门进入可见)", "picinfo": null, "F8": null, "F9": null, "F10": null, "F11": null }, "geometry": { "type": "Point", "coordinates": [ 116.236259, 39.953236 ] } },
{ "type": "Feature", "id": 82, "properties": { "districtna": "海淀区", "districtco": 110108.000000, "latitude": 40.045689, "longitude": 116.355094, "name": "汽车充电站(基业达电气院)", "address": "小营后屯路基业达电气院内东门处", "picinfo": null, "F8": null, "F9": null, "F10": null, "F11": null }, "geometry": { "type": "Point", "coordinates": [ 116.355094, 40.045689 ] } },
{ "type": "Feature", "id": 83, "properties": { "districtna": "海淀区", "districtco": 110108.000000, "latitude": 40.046082, "longitude": 116.304092, "name": "特来电汽车充电站(信息路)", "address": "信息路1号院上地国际创业园西区", "picinfo": "进门右侧", "F8": "http:\/\/store.is.autonavi.com\/showpic\/cf9ea7b646e7758d62b9e140bdbe6b69", "F9": null, "F10": null, "F11": null }, "geometry": { "type": "Point", "coordinates": [ 116.304092, 40.046082 ] } },
{ "type": "Feature", "id": 84, "properties": { "districtna": "海淀区", "districtco": 110108.000000, "latitude": 39.960464, "longitude": 116.282703, "name": "北京电动公交车专用充电站", "address": "老营房路与蓝靛厂中路交叉口西南200米", "picinfo": null, "F8": null, "F9": null, "F10": null, "F11": null }, "geometry": { "type": "Point", "coordinates": [ 116.282703, 39.960464 ] } },
{ "type": "Feature", "id": 85, "properties": { "districtna": "海淀区", "districtco": 110108.000000, "latitude": 39.935320, "longitude": 116.309094, "name": "特斯拉汽车充电站(国际财经中心)", "address": "西三环北路87国际财经中心B2地下停车场", "picinfo": null, "F8": null, "F9": null, "F10": null, "F11": null }, "geometry": { "type": "Point", "coordinates": [ 116.309094, 39.93532 ] } },
{ "type": "Feature", "id": 86, "properties": { "districtna": "海淀区", "districtco": 110108.000000, "latitude": 39.959160, "longitude": 116.370207, "name": "国家电网汽车充电站(金声路)", "address": "新街口外大街19", "picinfo": null, "F8": null, "F9": null, "F10": null, "F11": null }, "geometry": { "type": "Point", "coordinates": [ 116.370207, 39.95916 ] } },
{ "type": "Feature", "id": 87, "properties": { "districtna": "海淀区", "districtco": 110108.000000, "latitude": 39.978278, "longitude": 116.368150, "name": "国家电网汽车充电站(中关村数字产业园)", "address": "花园路2号牡丹科技楼B座附近", "picinfo": null, "F8": null, "F9": null, "F10": null, "F11": null }, "geometry": { "type": "Point", "coordinates": [ 116.36815, 39.978278 ] } },
{ "type": "Feature", "id": 88, "properties": { "districtna": "海淀区", "districtco": 110108.000000, "latitude": 39.931496, "longitude": 116.277802, "name": "普天新能源汽车充电站(玲珑天地站)", "address": "西四环北路160号玲珑天地A座停车场", "picinfo": "http:\/\/store.is.autonavi.com\/showpic\/d14da0e38d97037017d1e61b1efd21dd", "F8": null, "F9": null, "F10": null, "F11": null }, "geometry": { "type": "Point", "coordinates": [ 116.277802, 39.931496 ] } },
{ "type": "Feature", "id": 89, "properties": { "districtna": "海淀区", "districtco": 110108.000000, "latitude": 39.944090, "longitude": 116.271554, "name": "金四季购物中心汽车充电站", "address": "西四环北路117号金四季购物中心地下停车场", "picinfo": null, "F8": null, "F9": null, "F10": null, "F11": null }, "geometry": { "type": "Point", "coordinates": [ 116.271554, 39.94409 ] } },
{ "type": "Feature", "id": 90, "properties": { "districtna": "海淀区", "districtco": 110108.000000, "latitude": 39.947388, "longitude": 116.258428, "name": "挚达汽车充电站(杏石口路)", "address": "四季青镇鹏奥", "picinfo": "http:\/\/store.is.autonavi.com\/showpic\/401fde5c350d1c8b19edc06250e955bb", "F8": null, "F9": null, "F10": null, "F11": null }, "geometry": { "type": "Point", "coordinates": [ 116.258428, 39.947388 ] } },
{ "type": "Feature", "id": 91, "properties": { "districtna": "海淀区", "districtco": 110108.000000, "latitude": 39.968375, "longitude": 116.316527, "name": "特来电汽车充电站(友谊路)", "address": "中关村大街59号校园西门明德楼地下车库B区", "picinfo": "http:\/\/store.is.autonavi.com\/showpic\/e56e4ea79a41c4263339a4c82c36b72c", "F8": null, "F9": null, "F10": null, "F11": null }, "geometry": { "type": "Point", "coordinates": [ 116.316527, 39.968375 ] } },
{ "type": "Feature", "id": 92, "properties": { "districtna": "海淀区", "districtco": 110108.000000, "latitude": 39.973021, "longitude": 116.335456, "name": "国家电网汽车充电站(北京联通隆福汽车销售服务有限公司)", "address": "中关村东路108号", "picinfo": "http:\/\/store.is.autonavi.com\/showpic\/4c07bfa099de431a8a6556fe6228004d", "F8": null, "F9": null, "F10": null, "F11": null }, "geometry": { "type": "Point", "coordinates": [ 116.335456, 39.973021 ] } },
{ "type": "Feature", "id": 93, "properties": { "districtna": "海淀区", "districtco": 110108.000000, "latitude": 40.086312, "longitude": 116.242762, "name": "国家电网汽车充电站(永丰派出所南)", "address": "皇后店路附近", "picinfo": "http:\/\/store.is.autonavi.com\/showpic\/19bd2bd1bc2af56a014911439f370bcb", "F8": null, "F9": null, "F10": null, "F11": null }, "geometry": { "type": "Point", "coordinates": [ 116.242762, 40.086312 ] } },
{ "type": "Feature", "id": 94, "properties": { "districtna": "海淀区", "districtco": 110108.000000, "latitude": 39.963415, "longitude": 116.312896, "name": "汽车充电站(北三环西路辅路)", "address": "北三环西路62号附近", "picinfo": null, "F8": null, "F9": null, "F10": null, "F11": null }, "geometry": { "type": "Point", "coordinates": [ 116.312896, 39.963415 ] } },
{ "type": "Feature", "id": 95, "properties": { "districtna": "海淀区", "districtco": 110108.000000, "latitude": 39.941659, "longitude": 116.294204, "name": "华商三优汽车充电站(彰化路)", "address": "彰化路与蓝靛厂南路交叉口西南150米", "picinfo": "http:\/\/store.is.autonavi.com\/showpic\/a7fed48d228ab3c59bf1cae36408c59c", "F8": null, "F9": null, "F10": null, "F11": null }, "geometry": { "type": "Point", "coordinates": [ 116.294204, 39.941659 ] } },
{ "type": "Feature", "id": 96, "properties": { "districtna": "海淀区", "districtco": 110108.000000, "latitude": 39.943009, "longitude": 116.291232, "name": "国家电网汽车充电站(彰化路)", "address": "彰化路北100米", "picinfo": "http:\/\/store.is.autonavi.com\/showpic\/45e82b443c0ac276d36e342ff89120cf", "F8": null, "F9": null, "F10": null, "F11": null }, "geometry": { "type": "Point", "coordinates": [ 116.291232, 39.943009 ] } },
{ "type": "Feature", "id": 97, "properties": { "districtna": "海淀区", "districtco": 110108.000000, "latitude": 40.040643, "longitude": 116.338326, "name": "广汽传祺新能源汽车充电站", "address": "G6辅路附近", "picinfo": null, "F8": null, "F9": null, "F10": null, "F11": null }, "geometry": { "type": "Point", "coordinates": [ 116.338326, 40.040643 ] } },
{ "type": "Feature", "id": 98, "properties": { "districtna": "海淀区", "districtco": 110108.000000, "latitude": 40.014917, "longitude": 116.348994, "name": "北京汽车汽车充电站(月泉路)", "address": "月泉路逸城东苑9号楼西侧1层", "picinfo": null, "F8": null, "F9": null, "F10": null, "F11": null }, "geometry": { "type": "Point", "coordinates": [ 116.348994, 40.014917 ] } },
{ "type": "Feature", "id": 99, "properties": { "districtna": "海淀区", "districtco": 110108.000000, "latitude": 40.053294, "longitude": 116.296245, "name": "特斯拉汽车充电站(后厂村路)", "address": "东北旺西8中关村软件园1号楼(信息中心)C座", "picinfo": "进入大门第一个路口右转到头再左转", "F8": "http:\/\/store.is.autonavi.com\/showpic\/fbeca9106c7dd5aeec9b5114fae69ad6", "F9": null, "F10": null, "F11": null }, "geometry": { "type": "Point", "coordinates": [ 116.296245, 40.053294 ] } },
{ "type": "Feature", "id": 100, "properties": { "districtna": "海淀区", "districtco": 110108.000000, "latitude": 39.990882, "longitude": 116.197784, "name": "国家电网汽车充电站(香山路)", "address": "香山公园东门9", "picinfo": "http:\/\/store.is.autonavi.com\/showpic\/237a416706b492ec440ba4f81934d07d", "F8": null, "F9": null, "F10": null, "F11": null }, "geometry": { "type": "Point", "coordinates": [ 116.197784, 39.990882 ] } },
{ "type": "Feature", "id": 101, "properties": { "districtna": "海淀区", "districtco": 110108.000000, "latitude": 39.956461, "longitude": 116.273968, "name": "普天新能源汽车充电站(依斯特大厦站)", "address": "西四环北路15号依斯特大厦", "picinfo": "http:\/\/store.is.autonavi.com\/showpic\/df4130c57aebf7facd58935625abff40", "F8": null, "F9": null, "F10": null, "F11": null }, "geometry": { "type": "Point", "coordinates": [ 116.273968, 39.956461 ] } },
{ "type": "Feature", "id": 102, "properties": { "districtna": "海淀区", "districtco": 110108.000000, "latitude": 39.974320, "longitude": 116.303525, "name": "艾瑟顿国际公寓停车场充电站", "address": "海淀南路34-号楼附近", "picinfo": null, "F8": null, "F9": null, "F10": null, "F11": null }, "geometry": { "type": "Point", "coordinates": [ 116.303525, 39.97432 ] } },
{ "type": "Feature", "id": 103, "properties": { "districtna": "朝阳区", "districtco": 110105.000000, "latitude": 39.972362, "longitude": 116.435197, "name": "特斯拉汽车充电站(北京新云南皇冠假日酒店)", "address": "G45大广高速辅路东150米", "picinfo": null, "F8": null, "F9": null, "F10": null, "F11": null }, "geometry": { "type": "Point", "coordinates": [ 116.435197, 39.972362 ] } },
{ "type": "Feature", "id": 104, "properties": { "districtna": "海淀区", "districtco": 110108.000000, "latitude": 39.946145, "longitude": 116.292499, "name": "汽车充电站(嘉友国际大厦西)", "address": "蓝靛厂南路25-1号楼附近", "picinfo": null, "F8": null, "F9": null, "F10": null, "F11": null }, "geometry": { "type": "Point", "coordinates": [ 116.292499, 39.946145 ] } },
{ "type": "Feature", "id": 105, "properties": { "districtna": "海淀区", "districtco": 110108.000000, "latitude": 39.928843, "longitude": 116.274515, "name": "汽车充电站(西四环北路辅路)", "address": "田村路与西四环北路交叉口西北100米", "picinfo": null, "F8": null, "F9": null, "F10": null, "F11": null }, "geometry": { "type": "Point", "coordinates": [ 116.274515, 39.928843 ] } },
{ "type": "Feature", "id": 106, "properties": { "districtna": "海淀区", "districtco": 110108.000000, "latitude": 39.966232, "longitude": 116.322763, "name": "汽车充电站(数码大厦B座西北)", "address": "中关村南大街2号院", "picinfo": null, "F8": null, "F9": null, "F10": null, "F11": null }, "geometry": { "type": "Point", "coordinates": [ 116.322763, 39.966232 ] } },
{ "type": "Feature", "id": 107, "properties": { "districtna": "海淀区", "districtco": 110108.000000, "latitude": 39.891041, "longitude": 116.296969, "name": "特斯拉汽车充电站(朗姆酒店)", "address": "莲花池西路16号金鑫大厦C座朗姆酒店", "picinfo": null, "F8": null, "F9": null, "F10": null, "F11": null }, "geometry": { "type": "Point", "coordinates": [ 116.296969, 39.891041 ] } },
{ "type": "Feature", "id": 108, "properties": { "districtna": "海淀区", "districtco": 110108.000000, "latitude": 39.908477, "longitude": 116.306699, "name": "挚达汽车充电站(复兴路辅路)", "address": "复兴路甲23-1-2号附近", "picinfo": null, "F8": null, "F9": null, "F10": null, "F11": null }, "geometry": { "type": "Point", "coordinates": [ 116.306699, 39.908477 ] } },
{ "type": "Feature", "id": 109, "properties": { "districtna": "海淀区", "districtco": 110108.000000, "latitude": 39.935924, "longitude": 116.309275, "name": "特斯拉汽车充电站(北洼东街)", "address": "西三环北路157号附近", "picinfo": null, "F8": null, "F9": null, "F10": null, "F11": null }, "geometry": { "type": "Point", "coordinates": [ 116.309275, 39.935924 ] } },
{ "type": "Feature", "id": 110, "properties": { "districtna": "海淀区", "districtco": 110108.000000, "latitude": 39.937892, "longitude": 116.326372, "name": "国家电网汽车充电站(腾达大厦)", "address": "西直门外大街168号腾达大厦地下停车场", "picinfo": "http:\/\/store.is.autonavi.com\/showpic\/ab534a464799910e78a854543168905a", "F8": null, "F9": null, "F10": null, "F11": null }, "geometry": { "type": "Point", "coordinates": [ 116.326372, 39.937892 ] } },
{ "type": "Feature", "id": 111, "properties": { "districtna": "海淀区", "districtco": 110108.000000, "latitude": 39.932796, "longitude": 116.320608, "name": "特斯拉汽车充电站(车公庄西路)", "address": "车公庄西路甲19号华通大厦A座东侧露天停车场入口处", "picinfo": "http:\/\/store.is.autonavi.com\/showpic\/86395f1f5df108fc7692e25d0aee33b4", "F8": null, "F9": null, "F10": null, "F11": null }, "geometry": { "type": "Point", "coordinates": [ 116.320608, 39.932796 ] } },
{ "type": "Feature", "id": 112, "properties": { "districtna": "海淀区", "districtco": 110108.000000, "latitude": 39.980550, "longitude": 116.308817, "name": "依威能源汽车充电站(善缘街)", "address": "中关村善缘街1号", "picinfo": null, "F8": null, "F9": null, "F10": null, "F11": null }, "geometry": { "type": "Point", "coordinates": [ 116.308817, 39.98055 ] } },
{ "type": "Feature", "id": 113, "properties": { "districtna": "海淀区", "districtco": 110108.000000, "latitude": 39.944223, "longitude": 116.290871, "name": "国家电网汽车充电站(望山园北)", "address": null, "picinfo": "http:\/\/store.is.autonavi.com\/showpic\/10806fcb8294360b04654f7b58a284d7", "F8": null, "F9": null, "F10": null, "F11": null }, "geometry": { "type": "Point", "coordinates": [ 116.290871, 39.944223 ] } },
{ "type": "Feature", "id": 114, "properties": { "districtna": "海淀区", "districtco": 110108.000000, "latitude": 39.993008, "longitude": 116.330022, "name": "国家电网汽车充电站(成府路)", "address": "清华科技园科技大厦C座", "picinfo": "威盛大厦北面", "F8": "地上停车场", "F9": null, "F10": null, "F11": null }, "geometry": { "type": "Point", "coordinates": [ 116.330022, 39.993008 ] } },
{ "type": "Feature", "id": 115, "properties": { "districtna": "海淀区", "districtco": 110108.000000, "latitude": 39.993538, "longitude": 116.329089, "name": "国家电网汽车充电站(学堂路)", "address": "威盛大厦东北侧", "picinfo": null, "F8": null, "F9": null, "F10": null, "F11": null }, "geometry": { "type": "Point", "coordinates": [ 116.329089, 39.993538 ] } },
{ "type": "Feature", "id": 116, "properties": { "districtna": "海淀区", "districtco": 110108.000000, "latitude": 39.952275, "longitude": 116.219804, "name": "北京珠宝首饰研修学院充电桩", "address": "四季青杏石口路98号翰林学院南门北京市邮政学校附近", "picinfo": null, "F8": null, "F9": null, "F10": null, "F11": null }, "geometry": { "type": "Point", "coordinates": [ 116.219804, 39.952275 ] } },
{ "type": "Feature", "id": 117, "properties": { "districtna": "海淀区", "districtco": 110108.000000, "latitude": 40.002316, "longitude": 116.353096, "name": "绿狗租车汽车充电站(金码大厦)", "address": "学清路38号金马大厦B2层", "picinfo": null, "F8": null, "F9": null, "F10": null, "F11": null }, "geometry": { "type": "Point", "coordinates": [ 116.353096, 40.002316 ] } },
{ "type": "Feature", "id": 118, "properties": { "districtna": "大兴区", "districtco": 110115.000000, "latitude": 39.789232, "longitude": 116.514090, "name": "北京亦庄智选假日酒店充电站", "address": "亦庄荣华南路10号院1号楼", "picinfo": null, "F8": null, "F9": null, "F10": null, "F11": null }, "geometry": { "type": "Point", "coordinates": [ 116.51409, 39.789232 ] } },
{ "type": "Feature", "id": 119, "properties": { "districtna": "怀柔区", "districtco": 110116.000000, "latitude": 40.332237, "longitude": 116.646042, "name": "国家电网汽车充电站(开放路)", "address": "开放路58号", "picinfo": "http:\/\/store.is.autonavi.com\/showpic\/8f9d6ae1feb15c09a2eefdf8a7bad41c", "F8": null, "F9": null, "F10": null, "F11": null }, "geometry": { "type": "Point", "coordinates": [ 116.646042, 40.332237 ] } },
{ "type": "Feature", "id": 120, "properties": { "districtna": "海淀区", "districtco": 110108.000000, "latitude": 39.952804, "longitude": 116.342232, "name": "国家电网汽车充电站(知行大道)", "address": "明湖路与知行大道交叉口东北100米", "picinfo": null, "F8": null, "F9": null, "F10": null, "F11": null }, "geometry": { "type": "Point", "coordinates": [ 116.342232, 39.952804 ] } },
{ "type": "Feature", "id": 121, "properties": { "districtna": "海淀区", "districtco": 110108.000000, "latitude": 40.086312, "longitude": 116.242762, "name": "国家电网汽车充电站(海淀西北旺供电所)", "address": "皇后店路附近", "picinfo": "http:\/\/store.is.autonavi.com\/showpic\/2ad112b76837ac6cd509c6d174868ac4", "F8": null, "F9": null, "F10": null, "F11": null }, "geometry": { "type": "Point", "coordinates": [ 116.242762, 40.086312 ] } },
{ "type": "Feature", "id": 122, "properties": { "districtna": "海淀区", "districtco": 110108.000000, "latitude": 39.953758, "longitude": 116.235946, "name": "国家电网汽车充电站(益园餐厅)", "address": "杏石口路65号益园餐厅后侧", "picinfo": "http:\/\/store.is.autonavi.com\/showpic\/d1e19f98f0fa89ac3d0027cbb6ab0878", "F8": null, "F9": null, "F10": null, "F11": null }, "geometry": { "type": "Point", "coordinates": [ 116.235946, 39.953758 ] } },
{ "type": "Feature", "id": 123, "properties": { "districtna": "海淀区", "districtco": 110108.000000, "latitude": 39.973872, "longitude": 116.246536, "name": "宝马汽车充电站(京宝行停车场)", "address": "闵庄路19号京宝行停车场内22", "picinfo": null, "F8": null, "F9": null, "F10": null, "F11": null }, "geometry": { "type": "Point", "coordinates": [ 116.246536, 39.973872 ] } },
{ "type": "Feature", "id": 124, "properties": { "districtna": "海淀区", "districtco": 110108.000000, "latitude": 40.000331, "longitude": 116.327942, "name": "循道新能源汽车充电站(学堂路)", "address": "学堂路与清华路交叉口南100米", "picinfo": null, "F8": null, "F9": null, "F10": null, "F11": null }, "geometry": { "type": "Point", "coordinates": [ 116.327942, 40.000331 ] } },
{ "type": "Feature", "id": 125, "properties": { "districtna": "海淀区", "districtco": 110108.000000, "latitude": 40.043819, "longitude": 116.253721, "name": "国家电网汽车充电站(黑龙潭路)", "address": "西北旺付家窑17号平房", "picinfo": null, "F8": null, "F9": null, "F10": null, "F11": null }, "geometry": { "type": "Point", "coordinates": [ 116.253721, 40.043819 ] } },
{ "type": "Feature", "id": 126, "properties": { "districtna": "海淀区", "districtco": 110108.000000, "latitude": 39.963368, "longitude": 116.323519, "name": "汽车充电站(银海大厦南区东南)", "address": "中关村南大街甲10号附近", "picinfo": null, "F8": null, "F9": null, "F10": null, "F11": null }, "geometry": { "type": "Point", "coordinates": [ 116.323519, 39.963368 ] } },
{ "type": "Feature", "id": 127, "properties": { "districtna": "海淀区", "districtco": 110108.000000, "latitude": 39.977204, "longitude": 116.365901, "name": "国家电网汽车充电站(翠微商场)", "address": "花园路2号翠微商场西门入口左侧", "picinfo": "http:\/\/store.is.autonavi.com\/showpic\/80b35894547f405c7e5f840aacb2dfd5", "F8": null, "F9": null, "F10": null, "F11": null }, "geometry": { "type": "Point", "coordinates": [ 116.365901, 39.977204 ] } },
{ "type": "Feature", "id": 128, "properties": { "districtna": "海淀区", "districtco": 110108.000000, "latitude": 39.967805, "longitude": 116.300894, "name": "依威能源汽车充电站(万泉庄路)", "address": "万柳东路与万泉庄路交叉口西南100米", "picinfo": null, "F8": null, "F9": null, "F10": null, "F11": null }, "geometry": { "type": "Point", "coordinates": [ 116.300894, 39.967805 ] } },
{ "type": "Feature", "id": 129, "properties": { "districtna": "海淀区", "districtco": 110108.000000, "latitude": 39.970413, "longitude": 116.300897, "name": "依威能源汽车充电站(万柳东路)", "address": "万柳东路西50米", "picinfo": null, "F8": null, "F9": null, "F10": null, "F11": null }, "geometry": { "type": "Point", "coordinates": [ 116.300897, 39.970413 ] } },
{ "type": "Feature", "id": 130, "properties": { "districtna": "海淀区", "districtco": 110108.000000, "latitude": 39.947068, "longitude": 116.280162, "name": "国家电网汽车充电站(紫竹院路)", "address": "紫竹院路与金庄路交叉口东北100米", "picinfo": null, "F8": null, "F9": null, "F10": null, "F11": null }, "geometry": { "type": "Point", "coordinates": [ 116.280162, 39.947068 ] } },
{ "type": "Feature", "id": 131, "properties": { "districtna": "海淀区", "districtco": 110108.000000, "latitude": 39.950460, "longitude": 116.356309, "name": "汽车充电站(西直门北大街辅路)", "address": "西直门外大街42号附近", "picinfo": null, "F8": null, "F9": null, "F10": null, "F11": null }, "geometry": { "type": "Point", "coordinates": [ 116.356309, 39.95046 ] } },
{ "type": "Feature", "id": 132, "properties": { "districtna": "海淀区", "districtco": 110108.000000, "latitude": 39.925326, "longitude": 116.304361, "name": "特来电汽车充电站(银谷湾西北)", "address": "阜成路51号中国人民解放军总医院第一附属医院附近", "picinfo": null, "F8": null, "F9": null, "F10": null, "F11": null }, "geometry": { "type": "Point", "coordinates": [ 116.304361, 39.925326 ] } },
{ "type": "Feature", "id": 133, "properties": { "districtna": "海淀区", "districtco": 110108.000000, "latitude": 39.921747, "longitude": 116.292119, "name": "国家电网汽车充电站(富锦公寓)", "address": "阜成路八宝庄11号楼富锦公寓", "picinfo": null, "F8": null, "F9": null, "F10": null, "F11": null }, "geometry": { "type": "Point", "coordinates": [ 116.292119, 39.921747 ] } },
{ "type": "Feature", "id": 134, "properties": { "districtna": "海淀区", "districtco": 110108.000000, "latitude": 40.041517, "longitude": 116.312071, "name": "普天新能源汽车充电站(金泰富地大厦西南)", "address": "上地东路时光租车(上地店)", "picinfo": "http:\/\/store.is.autonavi.com\/showpic\/44348c648c0784f17a679146ce629081", "F8": null, "F9": null, "F10": null, "F11": null }, "geometry": { "type": "Point", "coordinates": [ 116.312071, 40.041517 ] } },
{ "type": "Feature", "id": 135, "properties": { "districtna": "海淀区", "districtco": 110108.000000, "latitude": 40.044063, "longitude": 116.346114, "name": "比亚迪汽车充电站(莱圳家园1期)", "address": "海淀清河小营莱圳家园1期地下车库B1层045号-145", "picinfo": null, "F8": null, "F9": null, "F10": null, "F11": null }, "geometry": { "type": "Point", "coordinates": [ 116.346114, 40.044063 ] } },
{ "type": "Feature", "id": 136, "properties": { "districtna": "海淀区", "districtco": 110108.000000, "latitude": 39.936365, "longitude": 116.308534, "name": "国家电网汽车充电站(北洼东街)", "address": "西三环北路159号附近", "picinfo": null, "F8": null, "F9": null, "F10": null, "F11": null }, "geometry": { "type": "Point", "coordinates": [ 116.308534, 39.936365 ] } },
{ "type": "Feature", "id": 137, "properties": { "districtna": "海淀区", "districtco": 110108.000000, "latitude": 40.048786, "longitude": 116.327003, "name": "特来电充电站(北京水利一处)", "address": "安宁庄东路6号院-2号楼", "picinfo": null, "F8": null, "F9": null, "F10": null, "F11": null }, "geometry": { "type": "Point", "coordinates": [ 116.327003, 40.048786 ] } },
{ "type": "Feature", "id": 138, "properties": { "districtna": "海淀区", "districtco": 110108.000000, "latitude": 39.943912, "longitude": 116.277266, "name": "星星充电汽车充电站(云会寺路)", "address": "诚品建筑小区5、6号楼后临停车位", "picinfo": "http:\/\/store.is.autonavi.com\/showpic\/df68fcd2418a772f951524359bc46706", "F8": null, "F9": null, "F10": null, "F11": null }, "geometry": { "type": "Point", "coordinates": [ 116.277266, 39.943912 ] } },
{ "type": "Feature", "id": 139, "properties": { "districtna": "海淀区", "districtco": 110108.000000, "latitude": 40.061175, "longitude": 116.348524, "name": "特来电充电站(北京北新家园)", "address": "建材城西路39号北新家园16号楼西侧停车位", "picinfo": null, "F8": null, "F9": null, "F10": null, "F11": null }, "geometry": { "type": "Point", "coordinates": [ 116.348524, 40.061175 ] } },
{ "type": "Feature", "id": 140, "properties": { "districtna": "海淀区", "districtco": 110108.000000, "latitude": 39.958440, "longitude": 116.325715, "name": "国家电网汽车充电站(农科一路)", "address": "中关村南大街12号农业部离退休干部局中关村工作处附近", "picinfo": null, "F8": null, "F9": null, "F10": null, "F11": null }, "geometry": { "type": "Point", "coordinates": [ 116.325715, 39.95844 ] } },
{ "type": "Feature", "id": 141, "properties": { "districtna": "海淀区", "districtco": 110108.000000, "latitude": 39.939869, "longitude": 116.301078, "name": "国家电网汽车充电站(双紫支渠路)", "address": "车道沟南路与长智路交叉口西南100米", "picinfo": null, "F8": null, "F9": null, "F10": null, "F11": null }, "geometry": { "type": "Point", "coordinates": [ 116.301078, 39.939869 ] } },
{ "type": "Feature", "id": 142, "properties": { "districtna": "海淀区", "districtco": 110108.000000, "latitude": 40.044151, "longitude": 116.358154, "name": "国家电网汽车充电站(东升科技园)", "address": "西小口路66号科技园内部地下2层停车场", "picinfo": null, "F8": null, "F9": null, "F10": null, "F11": null }, "geometry": { "type": "Point", "coordinates": [ 116.358154, 40.044151 ] } },
{ "type": "Feature", "id": 143, "properties": { "districtna": "海淀区", "districtco": 110108.000000, "latitude": 39.993262, "longitude": 116.205174, "name": "国家电网汽车充电站(一棵松路)", "address": "公交总站西侧", "picinfo": "香山5号停车场内东北角(停车场入口左转到头)", "F8": null, "F9": null, "F10": null, "F11": null }, "geometry": { "type": "Point", "coordinates": [ 116.205174, 39.993262 ] } },
{ "type": "Feature", "id": 144, "properties": { "districtna": "海淀区", "districtco": 110108.000000, "latitude": 40.041653, "longitude": 116.322801, "name": "优易充汽车充电站(安宁庄西路)", "address": "安宁庄西路13号附近", "picinfo": null, "F8": null, "F9": null, "F10": null, "F11": null }, "geometry": { "type": "Point", "coordinates": [ 116.322801, 40.041653 ] } },
{ "type": "Feature", "id": 145, "properties": { "districtna": "海淀区", "districtco": 110108.000000, "latitude": 39.961778, "longitude": 116.294097, "name": "万柳一号运动中心电动汽车充电站", "address": "万柳西路与泉宗路交叉口南150米", "picinfo": null, "F8": null, "F9": null, "F10": null, "F11": null }, "geometry": { "type": "Point", "coordinates": [ 116.294097, 39.961778 ] } },
{ "type": "Feature", "id": 146, "properties": { "districtna": "海淀区", "districtco": 110108.000000, "latitude": 40.043953, "longitude": 116.314689, "name": "依威能源汽车充电站(安宁庄路)", "address": "安宁庄路26号楼附近", "picinfo": null, "F8": null, "F9": null, "F10": null, "F11": null }, "geometry": { "type": "Point", "coordinates": [ 116.314689, 40.043953 ] } },
{ "type": "Feature", "id": 147, "properties": { "districtna": "海淀区", "districtco": 110108.000000, "latitude": 39.979671, "longitude": 116.360387, "name": "国家电网汽车充电站(花园路学区管理中心西北)", "address": "塔院东街附近", "picinfo": null, "F8": null, "F9": null, "F10": null, "F11": null }, "geometry": { "type": "Point", "coordinates": [ 116.360387, 39.979671 ] } },
{ "type": "Feature", "id": 148, "properties": { "districtna": "海淀区", "districtco": 110108.000000, "latitude": 39.971163, "longitude": 116.338390, "name": "国家电网汽车充电站(大钟寺东路)", "address": "大钟寺东路9号(北三环联想桥向东500米)", "picinfo": "http:\/\/store.is.autonavi.com\/showpic\/467df99b94d3f62e097229b891899212", "F8": null, "F9": null, "F10": null, "F11": null }, "geometry": { "type": "Point", "coordinates": [ 116.33839, 39.971163 ] } },
{ "type": "Feature", "id": 149, "properties": { "districtna": "海淀区", "districtco": 110108.000000, "latitude": 39.990438, "longitude": 116.295635, "name": "富电科技汽车充电站(海淀镇政府)", "address": "柳西苑操场108号(海淀镇政府内)", "picinfo": null, "F8": null, "F9": null, "F10": null, "F11": null }, "geometry": { "type": "Point", "coordinates": [ 116.295635, 39.990438 ] } },
{ "type": "Feature", "id": 150, "properties": { "districtna": "海淀区", "districtco": 110108.000000, "latitude": 39.914078, "longitude": 116.277561, "name": "国家电网汽车充电站(五棵松北路)", "address": "复兴路69号卓展中心停车场B2层G区", "picinfo": null, "F8": null, "F9": null, "F10": null, "F11": null }, "geometry": { "type": "Point", "coordinates": [ 116.277561, 39.914078 ] } },
{ "type": "Feature", "id": 151, "properties": { "districtna": "海淀区", "districtco": 110108.000000, "latitude": 39.971748, "longitude": 116.370999, "name": "北三环中路43号院电动汽车充电站", "address": "北三环中路北太平庄往北400米", "picinfo": null, "F8": null, "F9": null, "F10": null, "F11": null }, "geometry": { "type": "Point", "coordinates": [ 116.370999, 39.971748 ] } },
{ "type": "Feature", "id": 152, "properties": { "districtna": "海淀区", "districtco": 110108.000000, "latitude": 39.958463, "longitude": 116.325445, "name": "国家电网汽车充电站(寰太大厦东)", "address": "农科一路与农科西大道交叉口西50米", "picinfo": null, "F8": null, "F9": null, "F10": null, "F11": null }, "geometry": { "type": "Point", "coordinates": [ 116.325445, 39.958463 ] } },
{ "type": "Feature", "id": 153, "properties": { "districtna": "海淀区", "districtco": 110108.000000, "latitude": 40.048852, "longitude": 116.268376, "name": "国家电网汽车充电站(后厂村路)", "address": "后厂村路85号附近", "picinfo": null, "F8": null, "F9": null, "F10": null, "F11": null }, "geometry": { "type": "Point", "coordinates": [ 116.268376, 40.048852 ] } },
{ "type": "Feature", "id": 154, "properties": { "districtna": "海淀区", "districtco": 110108.000000, "latitude": 39.942959, "longitude": 116.322631, "name": "国家电网汽车充电站(国图宾馆南)", "address": "中关村南大街33号", "picinfo": null, "F8": null, "F9": null, "F10": null, "F11": null }, "geometry": { "type": "Point", "coordinates": [ 116.322631, 39.942959 ] } },
{ "type": "Feature", "id": 155, "properties": { "districtna": "海淀区", "districtco": 110108.000000, "latitude": 40.041285, "longitude": 116.290678, "name": "北汽新能源汽车充电站(东北旺路)", "address": "东北旺中路与东北旺南路交叉口西50米", "picinfo": null, "F8": null, "F9": null, "F10": null, "F11": null }, "geometry": { "type": "Point", "coordinates": [ 116.290678, 40.041285 ] } },
{ "type": "Feature", "id": 156, "properties": { "districtna": "海淀区", "districtco": 110108.000000, "latitude": 39.978195, "longitude": 116.312297, "name": "普天新能源汽车充电站(通惠寺街)", "address": "中关村东三街与通惠寺街交叉口西北100米", "picinfo": null, "F8": null, "F9": null, "F10": null, "F11": null }, "geometry": { "type": "Point", "coordinates": [ 116.312297, 39.978195 ] } },
{ "type": "Feature", "id": 157, "properties": { "districtna": "海淀区", "districtco": 110108.000000, "latitude": 40.042749, "longitude": 116.279823, "name": "宜维之家汽车充电站(软件园南街)", "address": "东北旺中路151号附近", "picinfo": null, "F8": null, "F9": null, "F10": null, "F11": null }, "geometry": { "type": "Point", "coordinates": [ 116.279823, 40.042749 ] } },
{ "type": "Feature", "id": 158, "properties": { "districtna": "海淀区", "districtco": 110108.000000, "latitude": 39.968510, "longitude": 116.373423, "name": "宝马汽车充电站(北三环中路43号院)", "address": "北三环中路北太平庄往北400米", "picinfo": null, "F8": null, "F9": null, "F10": null, "F11": null }, "geometry": { "type": "Point", "coordinates": [ 116.373423, 39.96851 ] } },
{ "type": "Feature", "id": 159, "properties": { "districtna": "海淀区", "districtco": 110108.000000, "latitude": 39.897584, "longitude": 116.336309, "name": "普天新能源汽车充电站(华天大厦)", "address": "北小马厂6号", "picinfo": null, "F8": null, "F9": null, "F10": null, "F11": null }, "geometry": { "type": "Point", "coordinates": [ 116.336309, 39.897584 ] } },
{ "type": "Feature", "id": 160, "properties": { "districtna": "海淀区", "districtco": 110108.000000, "latitude": 39.994233, "longitude": 116.333488, "name": "国家电网汽车充电站(中关村东路)", "address": "中关村东路8号东升大厦", "picinfo": null, "F8": null, "F9": null, "F10": null, "F11": null }, "geometry": { "type": "Point", "coordinates": [ 116.333488, 39.994233 ] } },
{ "type": "Feature", "id": 161, "properties": { "districtna": "海淀区", "districtco": 110108.000000, "latitude": 39.898048, "longitude": 116.333902, "name": "普天新能源汽车充电站(中土大厦站)", "address": "北蜂窝6号地上1快2慢", "picinfo": "地下2慢", "F8": "http:\/\/store.is.autonavi.com\/showpic\/3c6b284498f5d0d7364820fd72121b28", "F9": null, "F10": null, "F11": null }, "geometry": { "type": "Point", "coordinates": [ 116.333902, 39.898048 ] } },
{ "type": "Feature", "id": 162, "properties": { "districtna": "海淀区", "districtco": 110108.000000, "latitude": 39.916796, "longitude": 116.309437, "name": "腾势汽车充电站(西三环中路辅路)", "address": "西三环中路与西三环中路出口交叉口西南150米", "picinfo": null, "F8": null, "F9": null, "F10": null, "F11": null }, "geometry": { "type": "Point", "coordinates": [ 116.309437, 39.916796 ] } },
{ "type": "Feature", "id": 163, "properties": { "districtna": "海淀区", "districtco": 110108.000000, "latitude": 39.968442, "longitude": 116.334747, "name": "特斯拉汽车充电站(苏宁联想桥店)", "address": "中关村东路118-5号金五星购物广场内", "picinfo": "http:\/\/store.is.autonavi.com\/showpic\/736897d369bee56b02d7035dd9a502d4", "F8": null, "F9": null, "F10": null, "F11": null }, "geometry": { "type": "Point", "coordinates": [ 116.334747, 39.968442 ] } },
{ "type": "Feature", "id": 164, "properties": { "districtna": "海淀区", "districtco": 110108.000000, "latitude": 40.073931, "longitude": 116.241900, "name": "永丰产业基地充电站", "address": "北清路99号办公区1号办公楼右侧", "picinfo": null, "F8": null, "F9": null, "F10": null, "F11": null }, "geometry": { "type": "Point", "coordinates": [ 116.2419, 40.073931 ] } },
{ "type": "Feature", "id": 165, "properties": { "districtna": "海淀区", "districtco": 110108.000000, "latitude": 40.044063, "longitude": 116.346114, "name": "北京汽车汽车充电站(莱圳家园1期)", "address": "海淀清河小营莱圳家园1期地下车库B1层045号-145", "picinfo": null, "F8": null, "F9": null, "F10": null, "F11": null }, "geometry": { "type": "Point", "coordinates": [ 116.346114, 40.044063 ] } },
{ "type": "Feature", "id": 166, "properties": { "districtna": "海淀区", "districtco": 110108.000000, "latitude": 39.911013, "longitude": 116.291127, "name": "特来电充电站(北京万寿庄宾馆)", "address": "万寿路西街7号", "picinfo": null, "F8": null, "F9": null, "F10": null, "F11": null }, "geometry": { "type": "Point", "coordinates": [ 116.291127, 39.911013 ] } },
{ "type": "Feature", "id": 167, "properties": { "districtna": "海淀区", "districtco": 110108.000000, "latitude": 40.042412, "longitude": 116.281047, "name": "特来电汽车充电站(北京汇冠大厦)", "address": "中关村软件园南街10号21号楼(进大门办公司东侧停车场)", "picinfo": null, "F8": null, "F9": null, "F10": null, "F11": null }, "geometry": { "type": "Point", "coordinates": [ 116.281047, 40.042412 ] } },
{ "type": "Feature", "id": 168, "properties": { "districtna": "海淀区", "districtco": 110108.000000, "latitude": 39.954094, "longitude": 116.271194, "name": "国家电网汽车充电站(科委四季青)", "address": "四季青路北50米", "picinfo": null, "F8": null, "F9": null, "F10": null, "F11": null }, "geometry": { "type": "Point", "coordinates": [ 116.271194, 39.954094 ] } },
{ "type": "Feature", "id": 169, "properties": { "districtna": "海淀区", "districtco": 110108.000000, "latitude": 39.989700, "longitude": 116.340414, "name": "星星汽车充电站(五道口嘉园小区)", "address": "五道口镇展春园西路3号院", "picinfo": "http:\/\/store.is.autonavi.com\/showpic\/56c0179cc7e9d9c118fda8c88dd5d2de", "F8": null, "F9": null, "F10": null, "F11": null }, "geometry": { "type": "Point", "coordinates": [ 116.340414, 39.9897 ] } },
{ "type": "Feature", "id": 170, "properties": { "districtna": "海淀区", "districtco": 110108.000000, "latitude": 39.972188, "longitude": 116.307266, "name": "特来电汽车充电站(人民大学北路)", "address": "苏州街132号附近", "picinfo": null, "F8": null, "F9": null, "F10": null, "F11": null }, "geometry": { "type": "Point", "coordinates": [ 116.307266, 39.972188 ] } },
{ "type": "Feature", "id": 171, "properties": { "districtna": "海淀区", "districtco": 110108.000000, "latitude": 40.014046, "longitude": 116.277802, "name": "循道新能源汽车充电站(小清河路)", "address": "小清河路附近", "picinfo": "http:\/\/store.is.autonavi.com\/showpic\/449ecdda1e70413088e7ef8be07443ac", "F8": null, "F9": null, "F10": null, "F11": null }, "geometry": { "type": "Point", "coordinates": [ 116.277802, 40.014046 ] } },
{ "type": "Feature", "id": 172, "properties": { "districtna": "海淀区", "districtco": 110108.000000, "latitude": 39.984310, "longitude": 116.309912, "name": "依威能源汽车充电站(海淀北一街)", "address": "海淀北一街与海淀西街交叉口东北100米", "picinfo": null, "F8": null, "F9": null, "F10": null, "F11": null }, "geometry": { "type": "Point", "coordinates": [ 116.309912, 39.98431 ] } },
{ "type": "Feature", "id": 173, "properties": { "districtna": "海淀区", "districtco": 110108.000000, "latitude": 40.042629, "longitude": 116.359927, "name": "国家电网汽车充电站(东升科技园)", "address": "东升科技园南门北500米路东", "picinfo": null, "F8": null, "F9": null, "F10": null, "F11": null }, "geometry": { "type": "Point", "coordinates": [ 116.359927, 40.042629 ] } },
{ "type": "Feature", "id": 174, "properties": { "districtna": "海淀区", "districtco": 110108.000000, "latitude": 39.981034, "longitude": 116.333312, "name": "国家电网汽车充电站(中关村南路)", "address": "中关村东路与中关村南路交叉口西南50米", "picinfo": null, "F8": null, "F9": null, "F10": null, "F11": null }, "geometry": { "type": "Point", "coordinates": [ 116.333312, 39.981034 ] } },
{ "type": "Feature", "id": 175, "properties": { "districtna": "海淀区", "districtco": 110108.000000, "latitude": 39.925845, "longitude": 116.298498, "name": "星星充电汽车充电站(裕惠大厦C座西)", "address": "八里庄桥与蓝靛厂南路交叉口东南200米", "picinfo": null, "F8": null, "F9": null, "F10": null, "F11": null }, "geometry": { "type": "Point", "coordinates": [ 116.298498, 39.925845 ] } },
{ "type": "Feature", "id": 176, "properties": { "districtna": "海淀区", "districtco": 110108.000000, "latitude": 40.041065, "longitude": 116.312235, "name": "普天新能源汽车充电站(上地东路)", "address": "上地东路临16-7号附近", "picinfo": null, "F8": null, "F9": null, "F10": null, "F11": null }, "geometry": { "type": "Point", "coordinates": [ 116.312235, 40.041065 ] } },
{ "type": "Feature", "id": 177, "properties": { "districtna": "朝阳区", "districtco": 110105.000000, "latitude": 39.997282, "longitude": 116.417691, "name": "国家电网汽车充电站(中安盛业大厦北)", "address": "北苑路168号", "picinfo": "http:\/\/store.is.autonavi.com\/showpic\/1f70e7e230909a7336da2f26ffa304bd", "F8": null, "F9": null, "F10": null, "F11": null }, "geometry": { "type": "Point", "coordinates": [ 116.417691, 39.997282 ] } },
{ "type": "Feature", "id": 178, "properties": { "districtna": "海淀区", "districtco": 110108.000000, "latitude": 39.994092, "longitude": 116.333594, "name": "普天新能源充电站(东升大厦2期)", "address": "中关村东路8号c-3室附近", "picinfo": null, "F8": null, "F9": null, "F10": null, "F11": null }, "geometry": { "type": "Point", "coordinates": [ 116.333594, 39.994092 ] } },
{ "type": "Feature", "id": 179, "properties": { "districtna": "海淀区", "districtco": 110108.000000, "latitude": 40.049279, "longitude": 116.329436, "name": "普天新能源汽车充电站(泰山饭店站)", "address": "西三旗安宁北里8号", "picinfo": null, "F8": null, "F9": null, "F10": null, "F11": null }, "geometry": { "type": "Point", "coordinates": [ 116.329436, 40.049279 ] } },
{ "type": "Feature", "id": 180, "properties": { "districtna": "海淀区", "districtco": 110108.000000, "latitude": 39.921984, "longitude": 116.292416, "name": "循道新能源汽车充电站(富锦公寓北)", "address": "定慧寺附近八宝庄八宝庄小区附近", "picinfo": null, "F8": null, "F9": null, "F10": null, "F11": null }, "geometry": { "type": "Point", "coordinates": [ 116.292416, 39.921984 ] } },
{ "type": "Feature", "id": 181, "properties": { "districtna": "海淀区", "districtco": 110108.000000, "latitude": 40.077139, "longitude": 116.238454, "name": "普天新能源汽车充电站(丰慧中路)", "address": "西北旺镇永丰科技企业加速器(永盛北路)进大门右手", "picinfo": "http:\/\/store.is.autonavi.com\/showpic\/0764ca509abea0864e6dcb1156a12ae5", "F8": null, "F9": null, "F10": null, "F11": null }, "geometry": { "type": "Point", "coordinates": [ 116.238454, 40.077139 ] } },
{ "type": "Feature", "id": 182, "properties": { "districtna": "海淀区", "districtco": 110108.000000, "latitude": 39.902415, "longitude": 116.327472, "name": "普天新能源汽车充电站(乔建社区北)", "address": "会城门东路与北蜂窝路交叉口西150米", "picinfo": null, "F8": null, "F9": null, "F10": null, "F11": null }, "geometry": { "type": "Point", "coordinates": [ 116.327472, 39.902415 ] } },
{ "type": "Feature", "id": 183, "properties": { "districtna": "海淀区", "districtco": 110108.000000, "latitude": 39.897765, "longitude": 116.319864, "name": "瑞海大厦-电动汽车充电站", "address": "莲花池东路53号瑞海大厦B4层", "picinfo": null, "F8": null, "F9": null, "F10": null, "F11": null }, "geometry": { "type": "Point", "coordinates": [ 116.319864, 39.897765 ] } },
{ "type": "Feature", "id": 184, "properties": { "districtna": "海淀区", "districtco": 110108.000000, "latitude": 40.036412, "longitude": 116.348431, "name": "北汽新能源汽车充电站(永泰庄北路)", "address": null, "picinfo": null, "F8": null, "F9": null, "F10": null, "F11": null }, "geometry": { "type": "Point", "coordinates": [ 116.348431, 40.036412 ] } },
{ "type": "Feature", "id": 185, "properties": { "districtna": "海淀区", "districtco": 110108.000000, "latitude": 39.897605, "longitude": 116.319150, "name": "Tellus power汽车充电站(北京西站)", "address": "羊坊店路21号附近", "picinfo": null, "F8": null, "F9": null, "F10": null, "F11": null }, "geometry": { "type": "Point", "coordinates": [ 116.31915, 39.897605 ] } },
{ "type": "Feature", "id": 186, "properties": { "districtna": "海淀区", "districtco": 110108.000000, "latitude": 40.028884, "longitude": 116.193793, "name": "腾势充电站(温泉镇国家电网汽车充电站)", "address": "温泉镇国家电网汽车充电站(杨家庄观光采摘园东)院内", "picinfo": "http:\/\/store.is.autonavi.com\/showpic\/caf1a49a89cedda62519aa866383bae3", "F8": null, "F9": null, "F10": null, "F11": null }, "geometry": { "type": "Point", "coordinates": [ 116.193793, 40.028884 ] } },
{ "type": "Feature", "id": 187, "properties": { "districtna": "海淀区", "districtco": 110108.000000, "latitude": 39.897456, "longitude": 116.312285, "name": "绿狗租车汽车充电站(莲花池东路辅路)", "address": "莲花桥与莲花池西路交叉口东北100米", "picinfo": null, "F8": null, "F9": null, "F10": null, "F11": null }, "geometry": { "type": "Point", "coordinates": [ 116.312285, 39.897456 ] } },
{ "type": "Feature", "id": 188, "properties": { "districtna": "海淀区", "districtco": 110108.000000, "latitude": 39.957805, "longitude": 116.332792, "name": "Tellus power汽车充电站(学院南路)", "address": "中关村南大街2-1号楼附近", "picinfo": null, "F8": null, "F9": null, "F10": null, "F11": null }, "geometry": { "type": "Point", "coordinates": [ 116.332792, 39.957805 ] } },
{ "type": "Feature", "id": 189, "properties": { "districtna": "朝阳区", "districtco": 110105.000000, "latitude": 39.978036, "longitude": 116.398117, "name": "国家电网汽车充电站", "address": "北土城东路公交站场", "picinfo": null, "F8": null, "F9": null, "F10": null, "F11": null }, "geometry": { "type": "Point", "coordinates": [ 116.398117, 39.978036 ] } },
{ "type": "Feature", "id": 190, "properties": { "districtna": "海淀区", "districtco": 110108.000000, "latitude": 39.983719, "longitude": 116.340432, "name": "特斯拉汽车充电站(长安金长风店站)", "address": "五道口新村4号", "picinfo": null, "F8": null, "F9": null, "F10": null, "F11": null }, "geometry": { "type": "Point", "coordinates": [ 116.340432, 39.983719 ] } },
{ "type": "Feature", "id": 191, "properties": { "districtna": "海淀区", "districtco": 110108.000000, "latitude": 39.984441, "longitude": 116.312945, "name": "普天新能源汽车充电站(方正大厦B4)", "address": "海淀北一街与莺房胡同交叉口东北50米", "picinfo": null, "F8": null, "F9": null, "F10": null, "F11": null }, "geometry": { "type": "Point", "coordinates": [ 116.312945, 39.984441 ] } },
{ "type": "Feature", "id": 192, "properties": { "districtna": "海淀区", "districtco": 110108.000000, "latitude": 39.956665, "longitude": 116.274756, "name": "普天新能源汽车充电站(伊斯特大厦)", "address": "西四环北路13号附近", "picinfo": null, "F8": null, "F9": null, "F10": null, "F11": null }, "geometry": { "type": "Point", "coordinates": [ 116.274756, 39.956665 ] } },
{ "type": "Feature", "id": 193, "properties": { "districtna": "海淀区", "districtco": 110108.000000, "latitude": 39.972179, "longitude": 116.334603, "name": "循道新能源汽车充电站(中关村东路)", "address": "中关村东路112号附近", "picinfo": null, "F8": null, "F9": null, "F10": null, "F11": null }, "geometry": { "type": "Point", "coordinates": [ 116.334603, 39.972179 ] } },
{ "type": "Feature", "id": 194, "properties": { "districtna": "海淀区", "districtco": 110108.000000, "latitude": 39.953236, "longitude": 116.236259, "name": "国家电网汽车充电站(益园文创基地)", "address": "杏石口路西150米", "picinfo": null, "F8": null, "F9": null, "F10": null, "F11": null }, "geometry": { "type": "Point", "coordinates": [ 116.236259, 39.953236 ] } },
{ "type": "Feature", "id": 195, "properties": { "districtna": "海淀区", "districtco": 110108.000000, "latitude": 39.918946, "longitude": 116.258358, "name": "普天新能源汽车充电站(玉海园小区站)", "address": "玉海园三里13号楼西侧", "picinfo": null, "F8": null, "F9": null, "F10": null, "F11": null }, "geometry": { "type": "Point", "coordinates": [ 116.258358, 39.918946 ] } },
{ "type": "Feature", "id": 196, "properties": { "districtna": "海淀区", "districtco": 110108.000000, "latitude": 39.920966, "longitude": 116.255570, "name": "普天新能源汽车充电站(玉海园小区站)", "address": "玉泉路玉泉路8号(玉海园一里20号楼物业服务大厅", "picinfo": "玉海园二里6号与12号楼之间", "F8": "玉海园三里13号楼西侧)", "F9": "http:\/\/store.is.autonavi.com\/showpic\/b8e98a2abdd424478e4e012d0887df35", "F10": null, "F11": null }, "geometry": { "type": "Point", "coordinates": [ 116.25557, 39.920966 ] } },
{ "type": "Feature", "id": 197, "properties": { "districtna": "海淀区", "districtco": 110108.000000, "latitude": 39.920241, "longitude": 116.254557, "name": "普天新能源汽车充电站(玉海园小区站)", "address": "玉海园二里6、12号楼之间", "picinfo": null, "F8": null, "F9": null, "F10": null, "F11": null }, "geometry": { "type": "Point", "coordinates": [ 116.254557, 39.920241 ] } },
{ "type": "Feature", "id": 198, "properties": { "districtna": "海淀区", "districtco": 110108.000000, "latitude": 39.932780, "longitude": 116.215541, "name": "国家电网汽车充电站(鹏天奥4S店)", "address": "廖公庄村国金院东侧平房", "picinfo": "http:\/\/store.is.autonavi.com\/showpic\/c757fdd85efcea90cc4c6c46305eb061", "F8": null, "F9": null, "F10": null, "F11": null }, "geometry": { "type": "Point", "coordinates": [ 116.215541, 39.93278 ] } },
{ "type": "Feature", "id": 199, "properties": { "districtna": "朝阳区", "districtco": 110105.000000, "latitude": 39.924033, "longitude": 116.548098, "name": "北汽鹏元4S店充电站", "address": "朝阳北路57号北京北汽鹏元汽车销售服务有限公司", "picinfo": "http:\/\/store.is.autonavi.com\/showpic\/268a948e7b05ac4a6d8b68b201a57476", "F8": null, "F9": null, "F10": null, "F11": null }, "geometry": { "type": "Point", "coordinates": [ 116.548098, 39.924033 ] } },
{ "type": "Feature", "id": 200, "properties": { "districtna": "海淀区", "districtco": 110108.000000, "latitude": 39.964579, "longitude": 116.313656, "name": "依威能源汽车充电站(北三环西路辅路)", "address": "北三环西路甲49号", "picinfo": null, "F8": null, "F9": null, "F10": null, "F11": null }, "geometry": { "type": "Point", "coordinates": [ 116.313656, 39.964579 ] } },
{ "type": "Feature", "id": 201, "properties": { "districtna": "海淀区", "districtco": 110108.000000, "latitude": 40.037429, "longitude": 116.345519, "name": "北京汽车汽车充电站(北京清河医院北)", "address": "G6辅路附近", "picinfo": null, "F8": null, "F9": null, "F10": null, "F11": null }, "geometry": { "type": "Point", "coordinates": [ 116.345519, 40.037429 ] } },
{ "type": "Feature", "id": 202, "properties": { "districtna": "海淀区", "districtco": 110108.000000, "latitude": 40.050563, "longitude": 116.253427, "name": "宝马汽车充电站(百旺绿谷宝马汽车园)", "address": "西北旺百旺绿谷汽车园F2地块", "picinfo": null, "F8": null, "F9": null, "F10": null, "F11": null }, "geometry": { "type": "Point", "coordinates": [ 116.253427, 40.050563 ] } },
{ "type": "Feature", "id": 203, "properties": { "districtna": "朝阳区", "districtco": 110105.000000, "latitude": 40.029949, "longitude": 116.442029, "name": "汽车充电站(北苑东路)", "address": "北苑东路1号", "picinfo": "http:\/\/store.is.autonavi.com\/showpic\/0af0af3953d5b77a632777a29d99d63d", "F8": null, "F9": null, "F10": null, "F11": null }, "geometry": { "type": "Point", "coordinates": [ 116.442029, 40.029949 ] } },
{ "type": "Feature", "id": 204, "properties": { "districtna": "东城区", "districtco": 110101.000000, "latitude": 39.907596, "longitude": 116.408788, "name": "汽车充电站(东长安街)", "address": "东长安街10号", "picinfo": null, "F8": null, "F9": null, "F10": null, "F11": null }, "geometry": { "type": "Point", "coordinates": [ 116.408788, 39.907596 ] } },
{ "type": "Feature", "id": 205, "properties": { "districtna": "海淀区", "districtco": 110108.000000, "latitude": 40.030641, "longitude": 116.273079, "name": "特来电充电站(北京市海淀区梅园)", "address": "马连洼梅园5号(小区院内)", "picinfo": null, "F8": null, "F9": null, "F10": null, "F11": null }, "geometry": { "type": "Point", "coordinates": [ 116.273079, 40.030641 ] } },
{ "type": "Feature", "id": 206, "properties": { "districtna": "海淀区", "districtco": 110108.000000, "latitude": 40.086859, "longitude": 116.260148, "name": "特来电充电站(北京友谊嘉园充电站)", "address": "北清路友谊路(院内停车场及小区门口右侧)", "picinfo": "http:\/\/store.is.autonavi.com\/showpic\/14e08aa438a8762dbb96cc7c0f4c2622", "F8": null, "F9": null, "F10": null, "F11": null }, "geometry": { "type": "Point", "coordinates": [ 116.260148, 40.086859 ] } },
{ "type": "Feature", "id": 207, "properties": { "districtna": "海淀区", "districtco": 110108.000000, "latitude": 39.996362, "longitude": 116.334699, "name": "特来电充电站(北京华源世纪商务楼)", "address": "双清路88号(车场入口进去主楼后面)", "picinfo": null, "F8": null, "F9": null, "F10": null, "F11": null }, "geometry": { "type": "Point", "coordinates": [ 116.334699, 39.996362 ] } },
{ "type": "Feature", "id": 208, "properties": { "districtna": "海淀区", "districtco": 110108.000000, "latitude": 39.898087, "longitude": 116.334238, "name": "普天新能源汽车充电站(东双贝子坟路)", "address": "北蜂窝6号地上1快2慢地下2慢", "picinfo": null, "F8": null, "F9": null, "F10": null, "F11": null }, "geometry": { "type": "Point", "coordinates": [ 116.334238, 39.898087 ] } },
{ "type": "Feature", "id": 209, "properties": { "districtna": "丰台区", "districtco": 110106.000000, "latitude": 39.816011, "longitude": 116.416454, "name": "北京公交集团充电站", "address": "树桥路北200米", "picinfo": "http:\/\/store.is.autonavi.com\/showpic\/1877bec58a13f4c24b7f609fbc990c9d", "F8": null, "F9": null, "F10": null, "F11": null }, "geometry": { "type": "Point", "coordinates": [ 116.416454, 39.816011 ] } },
{ "type": "Feature", "id": 210, "properties": { "districtna": "海淀区", "districtco": 110108.000000, "latitude": 39.970631, "longitude": 116.347418, "name": "特来电汽车充电站(首都体院社区西南)", "address": "北三环西路11号(游泳馆东侧停车位)", "picinfo": null, "F8": null, "F9": null, "F10": null, "F11": null }, "geometry": { "type": "Point", "coordinates": [ 116.347418, 39.970631 ] } },
{ "type": "Feature", "id": 211, "properties": { "districtna": "海淀区", "districtco": 110108.000000, "latitude": 40.044520, "longitude": 116.356820, "name": "中关村东升科技园地下停车场电动汽车充电站", "address": "西小口路66号中关村东升科技园地下停车场B2层", "picinfo": null, "F8": null, "F9": null, "F10": null, "F11": null }, "geometry": { "type": "Point", "coordinates": [ 116.35682, 40.04452 ] } },
{ "type": "Feature", "id": 212, "properties": { "districtna": "海淀区", "districtco": 110108.000000, "latitude": 39.983974, "longitude": 116.331279, "name": "国家电网汽车充电站(北京物科宾馆东北)", "address": "中关村南三街8号", "picinfo": "中科院物理所北院停车场", "F8": "主楼东侧楼梯下", "F9": "http:\/\/store.is.autonavi.com\/showpic\/beff646a6f74e92152fc72218d1d0cda", "F10": null, "F11": null }, "geometry": { "type": "Point", "coordinates": [ 116.331279, 39.983974 ] } },
{ "type": "Feature", "id": 213, "properties": { "districtna": "海淀区", "districtco": 110108.000000, "latitude": 39.937690, "longitude": 116.326308, "name": "国家电网汽车充电站(首都体育馆南路)", "address": "西直门外大街168号腾达大厦", "picinfo": null, "F8": null, "F9": null, "F10": null, "F11": null }, "geometry": { "type": "Point", "coordinates": [ 116.326308, 39.93769 ] } },
{ "type": "Feature", "id": 214, "properties": { "districtna": "丰台区", "districtco": 110106.000000, "latitude": 39.829800, "longitude": 116.322010, "name": "汽车充电站(江淮汽车4S店)", "address": "南四环西路88号", "picinfo": "http:\/\/store.is.autonavi.com\/showpic\/d932e7739b0d8d41f6049a496c5b1e8a", "F8": null, "F9": null, "F10": null, "F11": null }, "geometry": { "type": "Point", "coordinates": [ 116.32201, 39.8298 ] } },
{ "type": "Feature", "id": 215, "properties": { "districtna": "海淀区", "districtco": 110108.000000, "latitude": 39.925726, "longitude": 116.229591, "name": "新能源汽车充电站", "address": "上庄大街与阜石路交叉口东北200米", "picinfo": null, "F8": null, "F9": null, "F10": null, "F11": null }, "geometry": { "type": "Point", "coordinates": [ 116.229591, 39.925726 ] } },
{ "type": "Feature", "id": 216, "properties": { "districtna": "海淀区", "districtco": 110108.000000, "latitude": 39.938285, "longitude": 116.275588, "name": "特来电汽车充电站(北京金泰海博酒店)", "address": "西四环北路与西四环北路入口交叉口东150米", "picinfo": null, "F8": null, "F9": null, "F10": null, "F11": null }, "geometry": { "type": "Point", "coordinates": [ 116.275588, 39.938285 ] } },
{ "type": "Feature", "id": 217, "properties": { "districtna": "海淀区", "districtco": 110108.000000, "latitude": 39.937835, "longitude": 116.275321, "name": "特来电汽车充电站(北京金泰海博酒店)", "address": "西四环北路与西四环北路入口交叉口东南150米", "picinfo": null, "F8": null, "F9": null, "F10": null, "F11": null }, "geometry": { "type": "Point", "coordinates": [ 116.275321, 39.937835 ] } },
{ "type": "Feature", "id": 218, "properties": { "districtna": "海淀区", "districtco": 110108.000000, "latitude": 39.924655, "longitude": 116.324274, "name": "师范大学东区地下停车场电动汽车充电站", "address": "阜成路与首都体育馆南路交叉口西北200米", "picinfo": null, "F8": null, "F9": null, "F10": null, "F11": null }, "geometry": { "type": "Point", "coordinates": [ 116.324274, 39.924655 ] } },
{ "type": "Feature", "id": 219, "properties": { "districtna": "海淀区", "districtco": 110108.000000, "latitude": 39.924656, "longitude": 116.298808, "name": "星星充电汽车充电站(海淀区裕惠大厦)", "address": "阜成路73号地面停车场", "picinfo": "http:\/\/store.is.autonavi.com\/showpic\/f9662389fd0411cb2aec8171ad717970", "F8": null, "F9": null, "F10": null, "F11": null }, "geometry": { "type": "Point", "coordinates": [ 116.298808, 39.924656 ] } },
{ "type": "Feature", "id": 220, "properties": { "districtna": "朝阳区", "districtco": 110105.000000, "latitude": 39.864346, "longitude": 116.488935, "name": "普天新能源汽车充电站(大东方温泉酒店西)", "address": "十八里店欢乐谷公寓1号院附近", "picinfo": null, "F8": null, "F9": null, "F10": null, "F11": null }, "geometry": { "type": "Point", "coordinates": [ 116.488935, 39.864346 ] } },
{ "type": "Feature", "id": 221, "properties": { "districtna": "海淀区", "districtco": 110108.000000, "latitude": 39.991470, "longitude": 116.326570, "name": "优科科技汽车充电站(过程大厦研究所)", "address": "中关村北二街与成府路交叉口西南150米", "picinfo": null, "F8": null, "F9": null, "F10": null, "F11": null }, "geometry": { "type": "Point", "coordinates": [ 116.32657, 39.99147 ] } },
{ "type": "Feature", "id": 222, "properties": { "districtna": "海淀区", "districtco": 110108.000000, "latitude": 40.076856, "longitude": 116.237900, "name": "普天新能源汽车充电站(加速器二区站)", "address": "永丰路5号院加速器二区", "picinfo": "http:\/\/store.is.autonavi.com\/showpic\/3eac46e9f3df4a5d92627ebafed303c4", "F8": null, "F9": null, "F10": null, "F11": null }, "geometry": { "type": "Point", "coordinates": [ 116.2379, 40.076856 ] } },
{ "type": "Feature", "id": 223, "properties": { "districtna": "海淀区", "districtco": 110108.000000, "latitude": 39.931636, "longitude": 116.277761, "name": "普天新能源汽车充电站(金隅玲珑天地)", "address": "海淀五路居地铁站C东南口南100米", "picinfo": null, "F8": null, "F9": null, "F10": null, "F11": null }, "geometry": { "type": "Point", "coordinates": [ 116.277761, 39.931636 ] } },
{ "type": "Feature", "id": 224, "properties": { "districtna": "海淀区", "districtco": 110108.000000, "latitude": 40.040440, "longitude": 116.346366, "name": "国家电网中国电力科学研究院汽车充电站", "address": "小营东路15号", "picinfo": "http:\/\/store.is.autonavi.com\/showpic\/75c0e8cabe64bb694a4f76b9c935df26", "F8": null, "F9": null, "F10": null, "F11": null }, "geometry": { "type": "Point", "coordinates": [ 116.346366, 40.04044 ] } },
{ "type": "Feature", "id": 225, "properties": { "districtna": "海淀区", "districtco": 110108.000000, "latitude": 39.921964, "longitude": 116.292416, "name": "特来电汽车充电站(北京裕宝商贸中心西南)", "address": "八宝庄小区11号", "picinfo": "双层停车位旁边", "F8": "http:\/\/store.is.autonavi.com\/showpic\/d58967ef976e2cc07628fcf3b103ac50", "F9": null, "F10": null, "F11": null }, "geometry": { "type": "Point", "coordinates": [ 116.292416, 39.921964 ] } },
{ "type": "Feature", "id": 226, "properties": { "districtna": "海淀区", "districtco": 110108.000000, "latitude": 40.049052, "longitude": 116.331622, "name": "星星充电汽车充电站(鑫敏恒瑞鑫4S店)", "address": "服务区与G6京藏高速交叉口西南200米", "picinfo": null, "F8": null, "F9": null, "F10": null, "F11": null }, "geometry": { "type": "Point", "coordinates": [ 116.331622, 40.049052 ] } },
{ "type": "Feature", "id": 227, "properties": { "districtna": "海淀区", "districtco": 110108.000000, "latitude": 40.085497, "longitude": 116.235221, "name": "特来电汽车充电站(北京海淀大牛坊2区)", "address": "大牛坊回迁安置房小区二区(三号楼北侧四车位)", "picinfo": null, "F8": null, "F9": null, "F10": null, "F11": null }, "geometry": { "type": "Point", "coordinates": [ 116.235221, 40.085497 ] } },
{ "type": "Feature", "id": 228, "properties": { "districtna": "海淀区", "districtco": 110108.000000, "latitude": 40.042042, "longitude": 116.291986, "name": "特来电充电站(北京市海淀区东旭园)", "address": "东北旺中路东旭园小区", "picinfo": null, "F8": null, "F9": null, "F10": null, "F11": null }, "geometry": { "type": "Point", "coordinates": [ 116.291986, 40.042042 ] } },
{ "type": "Feature", "id": 229, "properties": { "districtna": "朝阳区", "districtco": 110105.000000, "latitude": 39.923161, "longitude": 116.438430, "name": "汽车充电站(朝外南街)", "address": "朝阳门外18号丰联广场B3", "picinfo": "http:\/\/store.is.autonavi.com\/showpic\/250ef7a181dfdd44d7b759a2055dfd2e", "F8": null, "F9": null, "F10": null, "F11": null }, "geometry": { "type": "Point", "coordinates": [ 116.43843, 39.923161 ] } },
{ "type": "Feature", "id": 230, "properties": { "districtna": "海淀区", "districtco": 110108.000000, "latitude": 39.971246, "longitude": 116.338261, "name": "国家电网汽车充电站(京仪科技大厦D座东北)", "address": "大钟寺东路9号京仪宾馆B3停车场", "picinfo": "http:\/\/store.is.autonavi.com\/showpic\/2fb06639250d08fdaadac83a16db8b9d", "F8": null, "F9": null, "F10": null, "F11": null }, "geometry": { "type": "Point", "coordinates": [ 116.338261, 39.971246 ] } },
{ "type": "Feature", "id": 231, "properties": { "districtna": "海淀区", "districtco": 110108.000000, "latitude": 40.054138, "longitude": 116.155695, "name": "特来电充电站(北京温泉村委会充电站)", "address": "温泉镇温泉村民委员会(地上停车场)", "picinfo": null, "F8": null, "F9": null, "F10": null, "F11": null }, "geometry": { "type": "Point", "coordinates": [ 116.155695, 40.054138 ] } },
{ "type": "Feature", "id": 232, "properties": { "districtna": "东城区", "districtco": 110101.000000, "latitude": 39.949549, "longitude": 116.440143, "name": "国家电网汽车充电站", "address": "香河园北街与左家庄西街道路交叉西南角", "picinfo": "http:\/\/store.is.autonavi.com\/showpic\/09d968f859e62784b40e84c19b385d19", "F8": null, "F9": null, "F10": null, "F11": null }, "geometry": { "type": "Point", "coordinates": [ 116.440143, 39.949549 ] } },
{ "type": "Feature", "id": 233, "properties": { "districtna": "海淀区", "districtco": 110108.000000, "latitude": 39.980589, "longitude": 116.332377, "name": "国家电网汽车充电站(骏马国际酒店西南)", "address": "中关村东路与中关村南路交叉口西南150米", "picinfo": null, "F8": null, "F9": null, "F10": null, "F11": null }, "geometry": { "type": "Point", "coordinates": [ 116.332377, 39.980589 ] } },
{ "type": "Feature", "id": 234, "properties": { "districtna": "东城区", "districtco": 110101.000000, "latitude": 39.934476, "longitude": 116.439396, "name": "巨石大厦充电站", "address": "新中西里13号巨石大厦停车场B1", "picinfo": null, "F8": null, "F9": null, "F10": null, "F11": null }, "geometry": { "type": "Point", "coordinates": [ 116.439396, 39.934476 ] } },
{ "type": "Feature", "id": 235, "properties": { "districtna": "海淀区", "districtco": 110108.000000, "latitude": 39.921375, "longitude": 116.262606, "name": "上海森通智达新能源技术服务有限公司充电站", "address": "永定路乙19号院附近", "picinfo": null, "F8": null, "F9": null, "F10": null, "F11": null }, "geometry": { "type": "Point", "coordinates": [ 116.262606, 39.921375 ] } },
{ "type": "Feature", "id": 236, "properties": { "districtna": "海淀区", "districtco": 110108.000000, "latitude": 39.991302, "longitude": 116.202966, "name": "特斯拉汽车充电站(世纪金源香山商旅酒店)", "address": "杰王府路北正黄旗59号世纪金源香山商旅酒店室外停车场", "picinfo": null, "F8": null, "F9": null, "F10": null, "F11": null }, "geometry": { "type": "Point", "coordinates": [ 116.202966, 39.991302 ] } },
{ "type": "Feature", "id": 237, "properties": { "districtna": "海淀区", "districtco": 110108.000000, "latitude": 39.925031, "longitude": 116.324930, "name": "国家电网汽车充电站(首都师范大学东校区)", "address": "阜成路与首都体育馆南路交叉口西北200米", "picinfo": null, "F8": null, "F9": null, "F10": null, "F11": null }, "geometry": { "type": "Point", "coordinates": [ 116.32493, 39.925031 ] } },
{ "type": "Feature", "id": 238, "properties": { "districtna": "海淀区", "districtco": 110108.000000, "latitude": 40.029778, "longitude": 116.336767, "name": "特斯拉汽车充电站(北京五彩城购物中心)", "address": "毛纺路附近", "picinfo": null, "F8": null, "F9": null, "F10": null, "F11": null }, "geometry": { "type": "Point", "coordinates": [ 116.336767, 40.029778 ] } },
{ "type": "Feature", "id": 239, "properties": { "districtna": "海淀区", "districtco": 110108.000000, "latitude": 40.099089, "longitude": 116.262753, "name": "普天新能源汽车充电站(生命科学园西路)", "address": "北清路中关村生命科学园路4号院", "picinfo": null, "F8": null, "F9": null, "F10": null, "F11": null }, "geometry": { "type": "Point", "coordinates": [ 116.262753, 40.099089 ] } },
{ "type": "Feature", "id": 240, "properties": { "districtna": "海淀区", "districtco": 110108.000000, "latitude": 39.984318, "longitude": 116.331358, "name": "国家电网汽车充电站(物理所家属楼东南)", "address": "中关村东路59号附近", "picinfo": null, "F8": null, "F9": null, "F10": null, "F11": null }, "geometry": { "type": "Point", "coordinates": [ 116.331358, 39.984318 ] } },
{ "type": "Feature", "id": 241, "properties": { "districtna": "朝阳区", "districtco": 110105.000000, "latitude": 39.952857, "longitude": 116.461923, "name": "中国普天汽车充电站", "address": "东三环北路东方路1号地下停车场", "picinfo": "http:\/\/store.is.autonavi.com\/showpic\/3fd7c299b3ca85271e5644b797636936", "F8": null, "F9": null, "F10": null, "F11": null }, "geometry": { "type": "Point", "coordinates": [ 116.461923, 39.952857 ] } },
{ "type": "Feature", "id": 242, "properties": { "districtna": "海淀区", "districtco": 110108.000000, "latitude": 39.907856, "longitude": 116.253989, "name": "地铁玉泉路站B1口充电站(国防大学院站)", "address": "复兴路83号国防大学2号院院外", "picinfo": null, "F8": null, "F9": null, "F10": null, "F11": null }, "geometry": { "type": "Point", "coordinates": [ 116.253989, 39.907856 ] } },
{ "type": "Feature", "id": 243, "properties": { "districtna": "昌平区", "districtco": 110114.000000, "latitude": 40.100067, "longitude": 116.261514, "name": "普天新能源汽车充电站(北大国际医院场站)", "address": "西门住院楼前", "picinfo": null, "F8": null, "F9": null, "F10": null, "F11": null }, "geometry": { "type": "Point", "coordinates": [ 116.261514, 40.100067 ] } },
{ "type": "Feature", "id": 244, "properties": { "districtna": "朝阳区", "districtco": 110105.000000, "latitude": 39.902278, "longitude": 116.599378, "name": "普天新能源汽车充电站", "address": "塔营东路与塔营北街交叉口东100米", "picinfo": null, "F8": null, "F9": null, "F10": null, "F11": null }, "geometry": { "type": "Point", "coordinates": [ 116.599378, 39.902278 ] } },
{ "type": "Feature", "id": 245, "properties": { "districtna": "海淀区", "districtco": 110108.000000, "latitude": 39.950689, "longitude": 116.356452, "name": "华商三优汽车充电站(钻河中心地面停车场)", "address": "西直门外大街42号附近", "picinfo": null, "F8": null, "F9": null, "F10": null, "F11": null }, "geometry": { "type": "Point", "coordinates": [ 116.356452, 39.950689 ] } },
{ "type": "Feature", "id": 246, "properties": { "districtna": "海淀区", "districtco": 110108.000000, "latitude": 40.028917, "longitude": 116.194027, "name": "国家电网汽车充电站(杨家庄观光采摘园东)", "address": "温泉镇", "picinfo": "http:\/\/store.is.autonavi.com\/showpic\/57c6b75fa7d178d7e5f658670293c168", "F8": null, "F9": null, "F10": null, "F11": null }, "geometry": { "type": "Point", "coordinates": [ 116.194027, 40.028917 ] } },
{ "type": "Feature", "id": 247, "properties": { "districtna": "海淀区", "districtco": 110108.000000, "latitude": 39.973442, "longitude": 116.299208, "name": "依威能源汽车充电站(京江阳光写字楼C座北)", "address": "海淀南路35号附近", "picinfo": null, "F8": null, "F9": null, "F10": null, "F11": null }, "geometry": { "type": "Point", "coordinates": [ 116.299208, 39.973442 ] } },
{ "type": "Feature", "id": 248, "properties": { "districtna": "朝阳区", "districtco": 110105.000000, "latitude": 39.916297, "longitude": 116.534456, "name": "国家电网汽车充电站", "address": "高碑店乡兴隆庄甲8号兴隆公园北门", "picinfo": "http:\/\/store.is.autonavi.com\/showpic\/8507a17e61b25ef6ca2e12b9f63c1abd", "F8": null, "F9": null, "F10": null, "F11": null }, "geometry": { "type": "Point", "coordinates": [ 116.534456, 39.916297 ] } },
{ "type": "Feature", "id": 249, "properties": { "districtna": "海淀区", "districtco": 110108.000000, "latitude": 39.936622, "longitude": 116.306824, "name": "国家电网汽车充电站(黄家医圈中医医院东南)", "address": "北洼东街北50米", "picinfo": null, "F8": null, "F9": null, "F10": null, "F11": null }, "geometry": { "type": "Point", "coordinates": [ 116.306824, 39.936622 ] } },
{ "type": "Feature", "id": 250, "properties": { "districtna": "海淀区", "districtco": 110108.000000, "latitude": 39.976777, "longitude": 116.365923, "name": "国家电网汽车充电站(翠微商场西门外停车场)", "address": "167号院-51号", "picinfo": null, "F8": null, "F9": null, "F10": null, "F11": null }, "geometry": { "type": "Point", "coordinates": [ 116.365923, 39.976777 ] } },
{ "type": "Feature", "id": 251, "properties": { "districtna": "海淀区", "districtco": 110108.000000, "latitude": 39.984058, "longitude": 116.331326, "name": "国家电网汽车充电站(中国科学院物理研究所)", "address": "中关村东路55号中国科学院基础科学园区附近", "picinfo": null, "F8": null, "F9": null, "F10": null, "F11": null }, "geometry": { "type": "Point", "coordinates": [ 116.331326, 39.984058 ] } },
{ "type": "Feature", "id": 252, "properties": { "districtna": "海淀区", "districtco": 110108.000000, "latitude": 39.932966, "longitude": 116.324533, "name": "特来电充电站(北京市充电服务平台示范站)", "address": "首体南路9号主语国际中心7号楼B3北3道", "picinfo": null, "F8": null, "F9": null, "F10": null, "F11": null }, "geometry": { "type": "Point", "coordinates": [ 116.324533, 39.932966 ] } },
{ "type": "Feature", "id": 253, "properties": { "districtna": "海淀区", "districtco": 110108.000000, "latitude": 40.063151, "longitude": 116.250969, "name": "特来电汽车充电站(朗丽兹西山花园酒店南)", "address": "六里屯回迁安置房小区五区院内(五号楼北侧靠西四车位)", "picinfo": null, "F8": null, "F9": null, "F10": null, "F11": null }, "geometry": { "type": "Point", "coordinates": [ 116.250969, 40.063151 ] } },
{ "type": "Feature", "id": 254, "properties": { "districtna": "东城区", "districtco": 110101.000000, "latitude": 39.913987, "longitude": 116.410985, "name": "星星充电汽车充电站", "address": "王府井大街255号王府井百货大楼B3停车场", "picinfo": "http:\/\/store.is.autonavi.com\/showpic\/5dfb96f3b694dcf485c16428116de1d1", "F8": null, "F9": null, "F10": null, "F11": null }, "geometry": { "type": "Point", "coordinates": [ 116.410985, 39.913987 ] } },
{ "type": "Feature", "id": 255, "properties": { "districtna": "海淀区", "districtco": 110108.000000, "latitude": 40.046030, "longitude": 116.305870, "name": "星星汽车充电站(上地国际创业园直流快充1)", "address": "上地信息路2号国际创业园东区2号楼停车场", "picinfo": "http:\/\/store.is.autonavi.com\/showpic\/b1d6e6b79bc044e3e49f8989cbc6f316", "F8": null, "F9": null, "F10": null, "F11": null }, "geometry": { "type": "Point", "coordinates": [ 116.30587, 40.04603 ] } },
{ "type": "Feature", "id": 256, "properties": { "districtna": "海淀区", "districtco": 110108.000000, "latitude": 40.046419, "longitude": 116.357394, "name": "普天新能源汽车充电站(东升科技园·北领地)", "address": "西小口路66号东升科技园B2座地下二层", "picinfo": null, "F8": null, "F9": null, "F10": null, "F11": null }, "geometry": { "type": "Point", "coordinates": [ 116.357394, 40.046419 ] } },
{ "type": "Feature", "id": 257, "properties": { "districtna": "海淀区", "districtco": 110108.000000, "latitude": 40.040898, "longitude": 116.312029, "name": "普天新能源汽车充电站(上地东路21号停车场)", "address": "上地东路95号附近", "picinfo": null, "F8": null, "F9": null, "F10": null, "F11": null }, "geometry": { "type": "Point", "coordinates": [ 116.312029, 40.040898 ] } },
{ "type": "Feature", "id": 258, "properties": { "districtna": "海淀区", "districtco": 110108.000000, "latitude": 40.041708, "longitude": 116.312297, "name": "普天新能源汽车充电站(上地五街东口停车场)", "address": "上地东路66号附近", "picinfo": null, "F8": null, "F9": null, "F10": null, "F11": null }, "geometry": { "type": "Point", "coordinates": [ 116.312297, 40.041708 ] } },
{ "type": "Feature", "id": 259, "properties": { "districtna": "海淀区", "districtco": 110108.000000, "latitude": 40.043894, "longitude": 116.342092, "name": "北汽新能源汽车充电站(福美苑小区10号院东北)", "address": "清河四拨子北京信息科技大学清河校区附近", "picinfo": null, "F8": null, "F9": null, "F10": null, "F11": null }, "geometry": { "type": "Point", "coordinates": [ 116.342092, 40.043894 ] } },
{ "type": "Feature", "id": 260, "properties": { "districtna": "海淀区", "districtco": 110108.000000, "latitude": 39.971260, "longitude": 116.309880, "name": "特来电汽车充电站(中国人民大学宜园充电站)", "address": "中关村大街59号宜园1号楼2号楼中间", "picinfo": "http:\/\/store.is.autonavi.com\/showpic\/eaedfe5bfbc416cbb7173941c3c8ce4f", "F8": null, "F9": null, "F10": null, "F11": null }, "geometry": { "type": "Point", "coordinates": [ 116.30988, 39.97126 ] } },
{ "type": "Feature", "id": 261, "properties": { "districtna": "海淀区", "districtco": 110108.000000, "latitude": 39.996362, "longitude": 116.334699, "name": "普天新能源汽车充电站(北京华源世纪商务楼)", "address": "光华路与日新路交叉口南150米", "picinfo": null, "F8": null, "F9": null, "F10": null, "F11": null }, "geometry": { "type": "Point", "coordinates": [ 116.334699, 39.996362 ] } },
{ "type": "Feature", "id": 262, "properties": { "districtna": "海淀区", "districtco": 110108.000000, "latitude": 39.981532, "longitude": 116.333170, "name": "国家电网汽车充电站(中国科学院物理研究所)", "address": "中关村南三街8号中科院物理所大楼东侧停车场", "picinfo": "http:\/\/store.is.autonavi.com\/showpic\/d82981f9475c99c76fc11b4febb61257", "F8": null, "F9": null, "F10": null, "F11": null }, "geometry": { "type": "Point", "coordinates": [ 116.33317, 39.981532 ] } },
{ "type": "Feature", "id": 263, "properties": { "districtna": "东城区", "districtco": 110101.000000, "latitude": 39.944594, "longitude": 116.406863, "name": "小蜻蜓汽车充电站", "address": "谢家胡同11号附近", "picinfo": null, "F8": null, "F9": null, "F10": null, "F11": null }, "geometry": { "type": "Point", "coordinates": [ 116.406863, 39.944594 ] } },
{ "type": "Feature", "id": 264, "properties": { "districtna": "海淀区", "districtco": 110108.000000, "latitude": 40.061969, "longitude": 116.179745, "name": "龙芯中科技术有限公司循道新能源汽车充电站", "address": "文松路附近", "picinfo": null, "F8": null, "F9": null, "F10": null, "F11": null }, "geometry": { "type": "Point", "coordinates": [ 116.179745, 40.061969 ] } },
{ "type": "Feature", "id": 265, "properties": { "districtna": "朝阳区", "districtco": 110105.000000, "latitude": 39.868102, "longitude": 116.488075, "name": "国家电网环卫车专用充电桩", "address": "东四环南路与弘燕东路交叉口北50米", "picinfo": "http:\/\/store.is.autonavi.com\/showpic\/9f1bad80c6fbeb4963e469b62eda6e9d", "F8": null, "F9": null, "F10": null, "F11": null }, "geometry": { "type": "Point", "coordinates": [ 116.488075, 39.868102 ] } },
{ "type": "Feature", "id": 266, "properties": { "districtna": "朝阳区", "districtco": 110105.000000, "latitude": 39.949836, "longitude": 116.625495, "name": "综合车型专用充电站", "address": "高安屯北街与金榆路交叉口西北角", "picinfo": null, "F8": null, "F9": null, "F10": null, "F11": null }, "geometry": { "type": "Point", "coordinates": [ 116.625495, 39.949836 ] } },
{ "type": "Feature", "id": 267, "properties": { "districtna": "东城区", "districtco": 110101.000000, "latitude": 39.922376, "longitude": 116.432954, "name": "朝阳门sohoB3充电站", "address": "朝阳门街道朝阳门SOHO", "picinfo": null, "F8": null, "F9": null, "F10": null, "F11": null }, "geometry": { "type": "Point", "coordinates": [ 116.432954, 39.922376 ] } },
{ "type": "Feature", "id": 268, "properties": { "districtna": "海淀区", "districtco": 110108.000000, "latitude": 39.987235, "longitude": 116.315881, "name": "星星充电汽车充电站(北京大学王克桢楼直流快充)", "address": "海淀路52号北京大学王克桢楼东侧地上停车场", "picinfo": "http:\/\/store.is.autonavi.com\/showpic\/1d6e9c73bf61fbe437f89a2dbc1df119", "F8": null, "F9": null, "F10": null, "F11": null }, "geometry": { "type": "Point", "coordinates": [ 116.315881, 39.987235 ] } },
{ "type": "Feature", "id": 269, "properties": { "districtna": "海淀区", "districtco": 110108.000000, "latitude": 39.909164, "longitude": 116.265360, "name": "星星充电汽车充电站(海淀区长峰假日酒店)", "address": "永定路街道北京长峰假日酒店地下停车场B1层", "picinfo": "http:\/\/store.is.autonavi.com\/showpic\/4826ab95cf7650dedc06ffca3859731e", "F8": null, "F9": null, "F10": null, "F11": null }, "geometry": { "type": "Point", "coordinates": [ 116.26536, 39.909164 ] } },
{ "type": "Feature", "id": 270, "properties": { "districtna": "海淀区", "districtco": 110108.000000, "latitude": 40.066594, "longitude": 116.255664, "name": "特来电汽车充电站(北京海淀永丰路六里屯4区)", "address": "六里屯回迁安置房小区四区院内(九号楼北侧", "picinfo": "二号楼南侧四车位)", "F8": null, "F9": null, "F10": null, "F11": null }, "geometry": { "type": "Point", "coordinates": [ 116.255664, 40.066594 ] } },